     2.11           OBSERVATION DATA    G (GPS)             RINEX VERSION / TYPE
teqc  2019Feb25     root                20210205 22:29:10UTCPGM / RUN BY / DATE
Linux 2.4.21-27.ELsmp|Opteron|gcc|Linux 64|=+               COMMENT
teqc  2019Feb25     root                20210205 22:29:09UTCCOMMENT
     2.11           OBSERVATION DATA    G (GPS)             COMMENT
teqc  2019Feb25     NOAA/NOS/NGS/CORS   20210202 00:50:16UTCCOMMENT
+39.764739464 (latitude)                                    COMMENT
-084.18064853 (longitude)                                   COMMENT
+196.575      (elevation)                                   COMMENT
+.000000      (antenna height)                              COMMENT
BIT 2 OF LLI FLAGS DATA COLLECTED UNDER A/S CONDITION       COMMENT
 SNR is mapped to RINEX snr flag value [0-9]                COMMENT
  L1 & L2: min(max(int(snr_dBHz/6), 0), 9)                  COMMENT
teqc.e edited: all SBAS satellites excluded                 COMMENT
teqc.e edited: all QZSS satellites excluded                 COMMENT
OHDT                                                        MARKER NAME
48                                                          MARKER NUMBER
David Beiter        OHDT                                    OBSERVER / AGENCY
4852K33878          TRIMBLE NETR8       48.01               REC # / TYPE / VERS
31177266            TRM57971.00     NONE                    ANT # / TYPE
   497796.5080 -4884306.6100  4058066.6380                  APPROX POSITION XYZ
        0.0000        0.0000        0.0000                  ANTENNA: DELTA H/E/N
     1     1                                                WAVELENGTH FACT L1/2
     8    L1    L2    C1    C2    P1    P2    S1    S2      # / TYPES OF OBSERV
    15.0000                                                 INTERVAL
teqc.w windowed: start @ 2021 Feb  1 00:00:00.000           COMMENT
teqc.w windowed:  end  @ 2021 Feb  1 01:00:00.000           COMMENT
teqc.w edited: all GLONASS satellites excluded              COMMENT
Forced Modulo Decimation to 15 seconds                      COMMENT
  2021     2     1     0     0    0.0000000     GPS         TIME OF FIRST OBS
                                                            END OF HEADER
 21  2  1  0  0  0.0000000  0 12G01G03G07G08G13G14G17G19G21G22G28G30
 108390154.535 8  84459939.290 8  20625955.703    20625960.578
  20625960.918          48.000          48.400
 131958823.765 5 102825094.808 5  25110928.547    25110935.938
  25110935.254          31.200          31.600
 119430247.449 7  93062553.013 6  22726815.039    22726818.063
  22726817.992          42.700          41.100
 128928800.637 6 100464102.888 6  24534335.039    24534341.512
  24534341.453          36.000          40.400
 125912086.445 7  98113411.61043  23960291.234
  23960295.309          42.000          23.500
 107157953.955 8  83499732.606 8  20391472.734    20391476.074
  20391476.195          48.700          53.900
 112241722.502 8  87461111.465 7  21358883.602    21358886.715
  21358887.297          48.500          47.700
 120747823.582 7  94089311.67845  22977560.891
  22977562.488          43.800          31.800
 120327195.989 7  93761488.66245  22897492.516
  22897494.461          43.900          31.500
 128509412.842 6 100137213.94243  24454526.547
  24454527.922          39.900          23.800
 110001144.837 8  85715206.15346  20932513.750
  20932515.543          48.700          40.500
 110755642.296 8  86303130.035 8  21076091.867    21076097.699
  21076097.180          48.900          48.900
 21  2  1  0  0 15.0000000  0 12G01G03G07G08G13G14G17G19G21G22G28G30
 108401444.869 7  84468736.984 8  20628103.922    20628109.234
  20628109.156          47.200          48.000
 131917141.412 4 102792615.012 5  25102995.578    25103006.242
  25103003.457          29.400          32.100
 119482561.952 7  93103317.586 6  22736770.242    22736773.027
  22736773.391          43.000          40.900
 128975543.159 5 100500525.618 6  24543230.773    24543237.438
  24543236.176          35.100          41.300
 125935914.650 7  98131979.06844  23964826.664
  23964829.633          42.600          25.400
 107147376.009 7  83491490.057 8  20389459.625    20389462.820
  20389463.109          47.900          53.100
 112220634.508 8  87444679.259 7  21354870.859    21354873.676
  21354874.258          48.100          47.900
 120704947.971 7  94055902.12545  22969401.555
  22969403.102          43.300          31.900
 120364164.346 7  93790295.14745  22904527.375
  22904529.445          44.600          30.200
 128481750.859 6 100115659.13743  24449263.859
  24449263.656          39.800          21.700
 109985898.927 8  85703326.23346  20929612.648
  20929614.285          49.100          40.700
 110785758.965 8  86326597.553 8  21081822.945    21081827.984
  21081828.605          48.600          50.000
 21  2  1  0  0 30.0000000  0 11G01G07G08G13G14G17G19G21G22G28G30
 108412898.778 7  84477662.112 8  20630283.648    20630288.535
  20630288.641          47.500          48.900
 119534937.107 7  93144129.379 6  22746736.992    22746739.828
  22746740.145          44.900          40.900
 129022279.074 6 100536943.142 6  24552124.719    24552130.273
  24552129.988          36.300          40.900
 125959846.217 7  98150627.05343  23969380.766
  23969382.938          42.600          22.500
 107136874.822 8  83483307.335 8  20387461.094    20387464.531
  20387464.898          48.300          52.900
 112199622.031 8  87428305.914 8  21350872.250    21350874.633
  21350875.063          48.800          48.100
 120662128.242 7  94022536.12345  22961253.203
  22961254.934          43.600          31.900
 120401215.541 7  93819166.19844  22911578.133
  22911579.777          44.100          29.900
 128454160.048 6 100094159.78643  24444012.406
  24444012.043          40.500          22.200
 109970699.767 8  85691482.74746  20926720.266
  20926721.934          49.100          40.700
 110815999.890 8  86350161.922 8  21087577.367    21087583.367
  21087583.500          48.100          49.500
 21  2  1  0  0 45.0000000  0 11G01G07G08G13G14G17G19G21G22G28G30
 108424516.490 8  84486714.888 8  20632494.867    20632499.891
  20632500.480          48.100          50.100
 119587372.895 7  93184988.454 6  22756715.492    22756717.707
  22756717.879          44.000          41.400
 129069008.416 6 100573355.627 6  24561017.125    24561022.762
  24561022.699          36.700          41.400
 125983881.298 7  98169355.68343  23973953.508
  23973955.625          42.100          22.600
 107126450.916 7  83475184.818 8  20385477.742    20385481.195
  20385481.254          47.300          52.000
 112178685.494 8  87411991.732 7  21346888.148    21346890.906
  21346891.535          49.300          47.900
 120619364.804 7  93989213.98645  22953115.391
  22953116.875          44.900          32.100
 120438349.594 7  93848101.82945  22918644.031
  22918646.645          44.100          30.500
 128426641.186 6 100072716.55743  24438776.008
  24438775.668          40.400          22.600
 109955547.876 7  85679676.07846  20923836.914
  20923839.020          47.600          40.000
 110846365.295 8  86373823.277 8  21093356.063    21093362.063
  21093361.727          48.100          49.600
 21  2  1  0  1  0.0000000  0 11G01G07G08G13G14G17G19G21G22G28G30
 108436297.790 8  84495895.113 8  20634736.148    20634741.543
  20634742.340          48.000          50.300
 119639868.793 7  93225894.375 6  22766705.109    22766707.238
  22766707.141          45.100          41.100
 129115730.907 5 100609762.757 6  24569908.695    24569913.496
  24569913.633          35.300          40.500
 126008019.438 7  98188164.62043  23978547.328
  23978549.086          42.300          22.800
 107116104.314 7  83467122.541 8  20383509.047    20383512.801
  20383512.805          47.600          51.900
 112157824.536 8  87395736.467 8  21342918.336    21342921.078
  21342921.363          49.100          48.100
 120576657.765 7  93955935.78645  22944988.727
  22944990.156          44.700          31.900
 120475566.220 7  93877101.78945  22925726.969
  22925728.758          44.100          31.300
 128399194.423 6 100051329.48443  24433552.492
  24433552.691          41.300          22.300
 109940443.344 7  85667906.31246  20920962.633
  20920964.211          47.900          39.900
 110876854.806 7  86397581.321 8  21099158.328    21099163.613
  21099163.016          47.500          49.700
 21  2  1  0  1 15.0000000  0 11G01G07G08G13G14G17G19G21G22G28G30
 108448242.269 8  84505202.494 8  20637009.844    20637014.160
  20637014.789          48.300          50.000
 119692424.339 7  93266846.728 6  22776706.023    22776707.938
  22776708.332          45.500          40.400
 129162446.259 5 100646164.324 6  24578797.484    24578803.578
  24578803.566          35.800          41.400
 126032260.218 6  98207053.51243  23983159.539
  23983163.004          41.100          22.200
 107105834.948 7  83459120.460 8  20381554.414    20381557.793
  20381558.426          46.700          51.200
 112137039.023 8  87379539.955 7  21338963.125    21338965.613
  21338965.820          48.600          47.800
 120534006.892 7  93922701.33445  22936873.320
  22936873.527          44.900          31.200
 120512865.028 7  93906165.79845  22932824.500
  22932826.582          44.800          31.600
 128371820.000 6 100029998.75743  24428344.211
  24428343.746          40.900          22.800
 109925385.920 7  85656173.24546  20918097.594
  20918098.977          46.300          39.400
 110907468.018 8  86421435.770 8  21104983.211    21104989.074
  21104989.094          48.300          49.100
 21  2  1  0  1 30.0000000  0 11G01G07G08G13G14G17G19G21G22G28G30
 108460349.987 8  84514637.089 8  20639313.555    20639318.602
  20639318.859          48.800          49.200
 119745039.338 7  93307845.447 6  22786717.867    22786720.156
  22786720.395          45.700          39.800
 129209154.631 6 100682560.468 6  24587685.898    24587691.551
  24587691.695          36.700          40.300
 126056603.307 6  98226022.15343  23987792.422
  23987795.922          41.300          22.600
 107095643.125 7  83451178.791 8  20379615.375    20379618.445
  20379619.117          46.600          51.100
 112116329.012 8  87363402.285 7  21335022.703    21335024.906
  21335025.027          48.800          47.600
 120491412.399 7  93889510.83445  22928766.813
  22928767.813          44.600          31.500
 120550245.749 7  93935293.62545  22939938.273
  22939940.102          44.600          30.700
 128344518.298 6 100008724.66143  24423148.992
  24423148.250          41.900          22.600
 109910375.982 7  85644477.17346  20915241.227
  20915242.449          46.000          40.100
 110938204.778 7  86445386.492 8  21110833.008    21110837.652
  21110837.535          47.700          49.600
 21  2  1  0  1 45.0000000  0 11G01G07G08G13G14G17G19G21G22G28G30
 108472620.716 8  84524198.725 8  20641648.094    20641653.402
  20641653.258          49.500          49.100
 119797713.540 7  93348890.267 6  22796741.469    22796744.094
  22796744.363          46.100          41.300
 129255855.992 5 100718951.152 6  24596573.297    24596578.742
  24596578.707          35.200          40.100
 126081048.353 6  98245070.25343  23992444.250
  23992447.035          40.900          22.500
 107085528.921 7  83443297.608 8  20377690.813    20377693.438
  20377694.180          46.400          50.800
 112095694.369 8  87347323.342 7  21331095.672    21331098.113
  21331097.516          49.500          47.200
 120448874.291 7  93856364.30045  22920672.039
  22920673.457          44.400          31.800
 120587707.999 7  93964484.98845  22947066.781
  22947068.430          44.600          30.500
 128317289.489 7  99987507.41843  24417966.984
  24417966.164          43.200          22.600
 109895413.468 7  85632818.05846  20912393.555
  20912395.266          46.600          39.800
 110969064.824 7  86469433.268 8  21116704.781    21116710.352
  21116709.879          47.500          49.500
 21  2  1  0  2  0.0000000  0 12G01G03G07G08G13G14G17G19G21G22G28G30
 108485054.338 8  84533887.283 8  20644013.680    20644019.230
  20644019.418          48.200          49.700
 131625542.799 4 102565391.50816  25047503.570    25047516.629
                        29.900          36.000
 119850446.467 7  93389980.862 6  22806776.391    22806779.305
  22806779.465          44.600          40.400
 129302549.978 6 100755336.062 6  24605458.195    24605464.098
  24605464.699          37.300          40.100
 126105595.316 6  98264197.75743  23997114.563
  23997118.066          40.600          22.300
 107075492.496 7  83435477.014 8  20375781.211    20375784.016
  20375784.242          45.800          50.100
 112075135.142 8  87331303.184 7  21327183.047    21327186.145
  21327186.012          48.300          47.600
 120406392.908 7  93823261.89645  22912588.617
  22912589.395          43.600          32.100
 120625251.467 7  93993739.66044  22954211.266
  22954212.051          44.500          29.900
 128290134.096 6  99966347.39243  24412799.508
  24412799.156          41.600          22.200
 109880498.661 7  85621196.12246  20909555.617
  20909557.102          47.000          39.300
 111000047.998 8  86493576.002 8  21122601.258    21122606.293
  21122606.250          48.100          49.800
 21  2  1  0  2 15.0000000  0 12G01G03G07G08G13G14G17G19G21G22G28G30
 108497650.832 7  84543702.722 8  20646410.656    20646416.559
  20646417.219          47.900          50.300
 131583914.612 4 102532953.901 5  25039581.250    25039592.633
  25039592.703          27.600          34.300
 119903237.839 7  93431116.970 6  22816821.742    22816825.516
  22816825.582          43.800          41.600
 129349236.790 5 100791715.386 6  24614341.703    24614347.793
  24614347.957          35.400          38.400
 126130243.788 6  98283404.32143  24001805.523
  24001808.816          41.100          22.800
 107065534.110 7  83427717.232 8  20373886.172    20373888.867
  20373889.063          44.600          48.800
 112054651.519 8  87315341.899 7  21323285.453    21323288.137
  21323288.516          48.600          47.700
 120363968.326 7  93790203.77245  22904515.172
  22904515.828          44.100          31.000
 120662876.013 7  94023057.50745  22961370.805
  22961371.617          44.500          30.800
 128263052.591 6  99945244.95943  24407645.289
  24407645.422          40.700          22.800
 109865631.711 7  85609611.48346  20906726.523
  20906728.027          47.000          39.500
 111031154.123 8  86517814.540 8  21128520.383    21128525.770
  21128525.789          48.500          50.000
 21  2  1  0  2 30.0000000  0 12G01G03G07G08G13G14G17G19G21G22G28G30
 108510409.915 8  84553644.844 8  20648839.125    20648844.934
  20648845.461          48.800          50.700
 131542294.838 5 102500522.844 5  25031665.773    25031671.012
  25031671.602          33.400          32.800
 119956087.208 7  93472298.273 6  22826878.773    22826881.645
  22826882.281          44.500          41.900
 129395915.749 5 100828088.586 6  24623224.398    24623231.258
  24623230.426          34.800          38.400
 126154993.226 6  98302689.61443  24006515.211
  24006518.551          40.400          22.600
 107055653.780 7  83420018.266 8  20372005.883    20372008.879
  20372009.008          45.300          48.700
 112034243.119 8  87299439.250 7  21319401.953    21319403.906
  21319403.750          48.300          47.000
 120321600.513 7  93757189.92045  22896452.766
  22896454.137          44.000          31.400
 120700581.315 7  94052438.25345  22968545.961
  22968546.973          46.000          30.900
 128236045.179 6  99924200.18443  24402507.172
  24402505.828          40.600          23.000
 109850812.657 7  85598064.17146  20903906.039
  20903908.273          45.900          39.600
 111062382.866 7  86542148.632 8  21134463.242    21134468.000
  21134467.953          47.300          49.700
 21  2  1  0  2 45.0000000  0 12G01G03G07G08G13G14G17G19G21G22G28G30
 108523331.637 8  84563713.713 8  20651297.930    20651303.586
  20651304.164          48.600          50.800
 131500683.996 5 102468098.925 5  25023746.797    25023752.848
  25023753.012          33.900          35.700
 120008994.498 7  93513524.756 6  22836946.242    22836950.027
  22836950.090          43.200          40.500
 129442587.245 6 100864455.969 6  24632106.563    24632112.137
  24632111.996          37.700          38.700
 126179843.750 6  98322053.68443  24011244.445
  24011247.477          40.700          22.800
 107045851.817 7  83412380.373 8  20370140.172    20370142.953
  20370143.086          43.800          49.000
 112013910.195 8  87283595.461 7  21315532.492    21315535.168
  21315534.609          49.000          47.900
 120279289.750 7  93724220.51245  22888400.898
  22888402.859          43.500          31.800
 120738367.209 7  94081881.82445  22975736.281
  22975737.090          45.400          30.500
 128209112.313 6  99903213.51543  24397381.383
  24397381.523          40.400          23.000
 109836041.736 7  85586554.35746  20901095.563
  20901097.152          47.200          39.200
 111093734.171 8  86566578.201 8  21140429.445    21140434.699
  21140433.695          48.600          48.900
 21  2  1  0  3  0.0000000  0 12G01G03G07G08G13G14G17G19G21G22G28G30
 108536415.503 8  84573908.939 8  20653787.750    20653793.281
  20653793.586          48.800          49.700
 131459082.281 5 102435681.975 6  25015829.602    25015836.313
  25015836.469          32.600          37.000
 120061959.024 7  93554795.797 6  22847025.555    22847029.063
  22847028.699          45.100          41.200
 129489250.903 5 100900817.300 6  24640986.508    24640992.598
  24640992.402          35.000          39.200
 126204794.673 7  98341495.92844  24015992.211
  24015995.090          42.100          24.400
 107036128.066 7  83404803.429 8  20368290.297    20368292.680
  20368293.141          44.100          48.400
 111993652.440 8  87267810.184 8  21311677.453    21311679.895
  21311680.566          48.600          48.800
 120237035.789 7  93691295.37745  22880360.375
  22880362.152          43.300          32.100
 120776232.874 7  94111387.54845  22982942.078
  22982943.090          46.600          30.500
 128182253.961 6  99882284.94343  24392269.664
  24392270.789          39.900          22.500
 109821318.978 7  85575082.08146  20898293.742
  20898295.730          46.500          38.800
 111125207.493 8  86591102.866 8  21146418.328    21146422.965
  21146423.031          48.500          49.100
 21  2  1  0  3 15.0000000  0 12G01G03G07G08G13G14G17G19G21G22G28G30
 108549661.635 8  84584230.608 8  20656308.344    20656313.789
  20656313.773          48.500          48.900
 131417490.356 5 102403272.623 5  25007913.945    25007921.586
  25007920.988          31.600          33.900
 120114980.796 7  93596111.430 7  22857115.094    22857119.055
  22857119.082          44.300          42.000
 129535906.939 5 100937172.642 6  24649864.875    24649871.242
  24649869.965          35.200          37.800
 126229845.690 6  98361016.20044  24020759.336
  24020762.781          40.800          24.000
 107026482.882 7  83397287.697 8  20366454.844    20366457.320
  20366457.902          43.200          48.900
 111973470.028 8  87252083.615 7  21307837.094    21307839.379
  21307839.449          49.100          47.800
 120194839.004 7  93658414.75945  22872331.297
  22872332.551          43.500          32.700
 120814178.637 7  94140955.66345  22990162.586
  22990163.984          45.300          30.700
 128155470.856 6  99861415.01843  24387173.477
  24387173.297          38.300          22.500
 109806644.522 7  85563647.44546  20895501.609
  20895503.242          45.600          38.800
 111156802.822 8  86615722.619 8  21152430.758    21152435.246
  21152434.801          49.100          49.700
 21  2  1  0  3 30.0000000  0 12G01G03G07G08G13G14G17G19G21G22G28G30
 108563069.664 8  84594678.430 8  20658860.516    20658865.180
  20658864.930          48.300          48.600
 131375908.335 5 102370871.176 5  25000001.570    25000009.840
  25000008.066          31.200          33.600
 120168059.126 7  93637471.141 6  22867215.469    22867219.371
  22867219.160          43.700          41.700
 129582554.874 6 100973521.661 6  24658741.063    24658748.176
  24658746.293          37.300          38.900
 126254996.462 6  98380614.22943  24025544.641
  24025548.477          41.600          22.900
 107016916.283 7  83389833.202 8  20364634.352    20364636.586
  20364637.012          43.700          49.100
 111953362.732 8  87236415.631 8  21304010.797    21304013.234
  21304013.117          48.700          48.300
 120152699.092 7  93625578.50745  22864311.711
  22864312.965          43.600          32.500
 120852203.979 7  94170585.80845  22997398.805
  22997400.211          44.900          30.400
 128128762.979 6  99840603.68543  24382092.086
  24382091.461          37.900          23.000
 109792018.403 7  85552250.48646  20892718.281
  20892720.074          46.400          38.800
 111188519.758 8  86640437.094 8  21158466.125    21158471.297
  21158470.195          48.300          48.800
 21  2  1  0  3 45.0000000  0 12G01G03G07G08G13G14G17G19G21G22G28G30
 108576639.448 8  84605252.305 8  20661442.625    20661447.453
  20661447.168          48.200          49.600
 131334336.703 4 102338477.698 6  24992088.336    24992098.359
  24992097.914          28.000          37.400
 120221193.760 7  93678874.727 7  22877327.563    22877330.313
  22877330.180          44.700          42.200
 129629194.856 5 101009864.480 6  24667616.586    24667622.492
  24667622.148          34.800          40.900
 126280246.726 6  98400289.76043  24030350.500
  24030353.148          40.500          21.500
 107007428.356 7  83382440.016 8  20362828.602    20362831.352
  20362831.859          43.200          49.000
 111933330.391 8  87220806.006 8  21300198.539    21300201.523
  21300202.313          48.500          49.300
 120110616.418 7  93592786.83345  22856303.930
  22856304.848          43.200          32.400
 120890308.304 7  94200277.49045  23004650.297
  23004651.621          45.300          30.700
 128102130.661 6  99819851.26043  24377023.117
  24377024.078          38.100          23.200
 109777440.738 7  85540891.27846  20889945.047
  20889946.645          47.000          38.800
 111220358.043 8  86665246.142 8  21164525.031    21164529.832
  21164529.430          49.100          49.900
 21  2  1  0  4  0.0000000  0 12G01G03G07G08G13G14G17G19G21G22G28G30
 108590370.942 8  84615952.173 8  20664055.297    20664060.305
  20664060.719          48.000          50.000
 131292775.784 5 102306092.445 6  24984183.898    24984190.434
  24984189.430          30.500          36.600
 120274384.595 7  93720322.130 6  22887449.266    22887452.098
  22887452.113          45.300          41.300
 129675826.810 5 101046201.083 6  24676489.563    24676495.973
  24676496.008          35.400          39.200
 126305596.218 7  98420042.56043  24035174.141
  24035176.422          42.500          23.600
 106998019.352 7  83375108.316 8  20361038.320    20361040.930
  20361041.336          43.400          49.000
 111913373.156 8  87205254.922 8  21296400.914    21296403.379
  21296403.805          48.600          48.200
 120068591.124 7  93560039.86545  22848306.383
  22848307.996          43.700          32.400
 120928491.730 7  94230030.82345  23011915.945
  23011917.484          45.100          30.200
 128075574.543 6  99799158.21944  24371968.195
  24371970.496          38.600          24.500
 109762911.758 7  85529570.01246  20887179.672
  20887181.594          45.800          38.800
 111252317.575 8  86690149.668 8  21170606.125    21170611.043
  21170611.254          49.500          49.600
 21  2  1  0  4 15.0000000  0 12G01G03G07G08G13G14G17G19G21G22G28G30
 108604263.865 7  84626777.829 8  20666699.211    20666703.965
  20666704.488          47.200          50.300
 131251226.089 5 102273716.153 5  24976274.391    24976284.125
  24976283.105          30.500          33.600
 120327631.063 7  93761812.864 6  22897581.984    22897584.277
  22897584.656          46.300          39.900
 129722450.257 5 101082531.008 6  24685362.094    24685368.289
  24685367.969          34.500          39.400
 126331044.357 6  98439872.27643  24040017.422
  24040019.996          40.200          22.800
 106988689.363 7  83367838.194 8  20359263.313    20359265.469
  20359265.602          43.600          49.300
 111893491.028 8  87189762.372 8  21292617.320    21292619.902
  21292620.090          48.500          49.100
 120026623.221 7  93527337.60545  22840320.469
  22840321.547          43.700          32.600
 120966753.832 7  94259845.46045  23019196.766
  23019198.273          46.700          30.400
 128049094.644 6  99778524.57343  24366929.578
  24366931.504          37.900          22.600
 109748431.482 7  85518286.69146  20884423.867
  20884425.914          47.300          40.200
 111284397.976 7  86715147.377 8  21176711.297    21176715.891
  21176715.492          47.700          49.700
 21  2  1  0  4 30.0000000  0 12G01G03G07G08G13G14G17G19G21G22G28G30
 108618318.361 7  84637729.392 8  20669373.500    20669379.066
  20669379.285          47.400          49.700
 131209688.144 5 102241348.939 6  24968373.836    24968378.824
  24968378.258          32.300          36.400
 120380933.032 7  93803346.843 6  22907724.727    22907727.301
  22907727.309          45.100          39.500
 129769065.436 5 101118854.510 6  24694232.867    24694238.707
  24694237.891          34.600          39.200
 126356591.316 6  98459779.01543  24044877.711
  24044881.879          40.200          22.800
 106979438.739 7  83360629.940 8  20357502.984    20357505.520
  20357505.598          44.100          50.500
 111873683.977 8  87174328.321 8  21288848.641    21288850.781
  21288851.105          48.700          48.500
 119984712.932 7  93494680.25045  22832346.031
  22832346.445          42.200          32.800
 121005094.523 7  94289721.33745  23026493.359
  23026493.895          47.100          30.400
 128022691.822 6  99757950.96643  24361905.984
  24361907.070          36.100          22.300
 109734000.294 7  85507041.62146  20881677.852
  20881679.941          46.600          40.200
 111316599.252 8  86740239.288 8  21182838.734    21182844.340
  21182843.984          48.100          49.800
 21  2  1  0  4 45.0000000  0 12G01G03G07G08G13G14G17G19G21G22G28G30
 108632534.042 7  84648806.533 8  20672078.516    20672083.684
  20672084.078          47.800          49.100
 131168162.196 5 102208991.011 6  24960470.281    24960476.648
  24960477.121          32.000          36.300
 120434290.015 7  93844923.724 6  22917878.148    22917880.758
  22917880.801          44.600          38.600
 129815672.347 5 101155171.570 6  24703101.391    24703107.719
  24703106.605          34.800          39.700
 126382236.488 6  98479762.27843  24049758.406
  24049761.375          41.600          22.900
 106970267.479 7  83353483.504 8  20355757.203    20355760.020
  20355760.254          43.900          50.500
 111853951.842 8  87158952.638 8  21285093.742    21285096.039
  21285096.098          48.800          48.200
 119942860.125 7  93462067.67045  22824381.516
  22824382.074          43.000          32.400
 121043513.304 7  94319658.03745  23033804.117
  23033805.477          47.200          32.200
 127996366.018 6  99737437.37043  24356896.219
  24356897.305          39.400          22.900
 109719618.229 7  85495834.82346  20878941.000
  20878943.133          47.800          40.500
 111348921.057 7  86765425.099 8  21188989.180    21188994.766
  21188994.668          47.500          49.800
 21  2  1  0  5  0.0000000  0 11G01G07G08G13G14G17G19G21G22G28G30
 108646910.483 7  84660008.971 8  20674814.016    20674819.770
  20674819.863          46.900          49.000
 120487701.451 7  93886543.032 6  22928041.914    22928043.945
  22928044.152          43.400          40.700
 129862270.588 5 101191481.925 6  24711968.992    24711975.055
  24711973.934          35.000          40.800
 126407979.326 7  98499821.59843  24054657.195
  24054660.660          42.000          22.200
 106961175.418 7  83346398.790 8  20354027.516    20354030.250
  20354030.301          44.300          51.000
 111834294.385 8  87143635.123 7  21281352.969    21281355.531
  21281355.352          49.900          47.700
 119901064.786 7  93429499.88245  22816427.414
  22816428.793          43.800          31.800
 121082009.495 7  94349655.06545  23041129.500
  23041130.984          46.200          30.300
 127970117.231 6  99716983.80244  24351900.898
  24351902.453          40.400          25.100
 109705285.077 7  85484666.13846  20876213.539
  20876215.102          47.700          40.600
 111381362.786 7  86790704.365 8  21195162.781    21195168.242
  21195167.883          47.200          49.400
 21  2  1  0  5 15.0000000  0 11G01G07G08G13G14G17G19G21G22G28G30
 108661447.728 7  84671336.695 8  20677580.602    20677585.715
  20677585.637          45.600          49.100
 120541167.240 7  93928204.687 6  22938215.969    22938219.316
  22938219.359          43.800          40.100
 129908859.965 6 101227785.278 6  24720834.234    24720841.219
  24720839.883          36.900          39.000
 126433819.601 6  98519956.90743  24059574.180
  24059577.641          40.400          23.000
 106952162.942 7  83339376.084 8  20352311.992    20352315.164
  20352315.441          44.200          50.900
 111814711.774 8  87128375.974 8  21277626.695    21277628.879
  21277629.023          49.500          48.000
 119859327.245 7  93396977.12345  22808485.328
  22808485.941          42.800          31.900
 121120583.219 7  94379712.52245  23048469.484
  23048471.129          45.800          30.600
 127943946.187 6  99696590.82044  24346920.203
  24346922.820          37.700          25.000
 109691001.091 7  85473535.76846  20873495.297
  20873497.461          47.600          40.800
 111413924.431 8  86816077.071 8  21201358.961    21201364.996
  21201364.855          48.800          50.300
 21  2  1  0  5 30.0000000  0 12G01G03G07G08G13G14G17G19G21G22G28G30
 108676145.645 7  84682789.614 8  20680377.727    20680382.652
  20680382.645          47.500          48.800
 131043657.956 5 102111962.50115  24936777.258    24936784.977
                        30.800          35.200
 120594687.042 7  93969908.394 6  22948400.391    22948403.270
  22948403.387          43.700          41.300
 129955440.545 6 101264081.833 6  24729699.875    24729704.926
  24729704.535          37.100          40.000
 126459757.193 6  98540168.04043  24064510.125
  24064513.180          41.800          22.000
 106943230.181 7  83332415.496 8  20350612.094    20350615.254
  20350615.594          44.400          50.900
 111795203.969 8  87113175.075 8  21273914.406    21273916.785
  21273917.180          49.700          48.600
 119817647.584 7  93364499.51445  22800553.414
  22800554.945          43.300          32.400
 121159234.236 7  94409830.19545  23055824.211
  23055825.953          46.000          31.600
 127917853.240 6  99676258.62044  24341957.203
  24341957.438          37.900          24.400
 109676766.540 7  85462443.90546  20870787.016
  20870788.668          47.200          39.800
 111446605.778 8  86841543.055 8  21207578.211    21207583.414
  21207583.223          49.100          50.000
 21  2  1  0  5 45.0000000  0 13G01G03G06G07G08G13G14G17G19G21G22G28
                                G30
 108691004.228 7  84694367.749 8  20683205.531    20683210.172
  20683210.352          47.100          49.000
 131002183.592 5 102079644.789 5  24928888.461    24928892.348
  24928893.922          33.600          35.900
 131922119.931 5 102796480.674 6  25103945.305    25103952.195
  25103951.199          35.200          38.200
 120648260.597 7  94011654.007 6  22958594.711    22958598.488
  22958598.172          42.100          41.100
 130002012.532 6 101300371.712 6  24738561.188    24738567.246
  24738567.148          36.700          40.200
 126485791.884 6  98560454.78043  24069464.164
  24069467.535          40.100          21.700
 106934377.499 7  83325517.316 8  20348927.648    20348929.965
  20348930.512          43.900          51.200
 111775771.074 8  87098032.570 7  21270216.023    21270218.520
  21270218.254          49.100          47.600
 119776026.074 7  93332067.17445  22792633.078
  22792635.367          44.600          33.200
 121197962.479 7  94440008.05045  23063193.734
  23063195.680          46.600          31.200
 127891838.629 6  99655987.53544  24337005.352
  24337006.613          41.000          26.000
 109662581.767 7  85451390.84646  20868087.070
  20868088.570          46.400          40.200
 111479406.765 8  86867102.246 8  21213819.453    21213825.367
  21213825.137          48.000          50.400
 21  2  1  0  6  0.0000000  0 13G01G03G06G07G08G13G14G17G19G21G22G28
                                G30
 108706023.252 7  84706070.884 8  20686063.125    20686068.609
  20686068.707          47.500          50.000
 130960723.277 4 102047338.095 5  24920992.547    24921002.449
  24921002.984          29.100          34.700
 131864024.845 5 102751211.822 6  25092890.414    25092897.406
  25092896.516          34.600          36.900
 120701887.524 7  94053441.187 6  22968799.891    22968803.516
  22968803.074          43.600          41.400
 130048575.566 6 101336654.579 6  24747422.406    24747428.328
  24747427.629          37.900          39.000
 126511923.188 6  98580816.82443  24074437.773
  24074439.902          39.200          22.000
 106925604.927 7  83318681.560 8  20347257.789    20347261.195
  20347261.336          44.300          51.000
 111756412.965 8  87082948.351 8  21266532.516    21266535.164
  21266535.148          49.000          48.000
 119734462.559 7  93299680.02845  22784724.430
  22784726.453          44.200          33.300
 121236767.454 7  94470245.70345  23070578.586
  23070580.836          44.700          30.000
 127865902.792 6  99635777.84144  24332070.172
  24332071.051          41.600          27.100
 109648446.802 7  85440376.59246  20865397.602
  20865399.254          46.900          39.000
 111512327.080 8  86892754.451 8  21220084.531    21220089.707
  21220089.684          48.800          50.000
 21  2  1  0  6 15.0000000  0 13G01G03G06G07G08G13G14G17G19G21G22G28
                                G30
 108721202.457 7  84717898.815 8  20688951.047    20688957.336
  20688957.641          47.200          50.200
 130919277.048 5 102015042.376 5  24913106.922    24913116.090
  24913115.563          30.700          33.200
 131805930.794 5 102705943.820 6  25081834.680    25081842.363
  25081841.684          35.700          36.700
 120755567.484 7  94095269.680 7  22979015.047    22979018.832
  22979018.637          44.400          42.600
 130095129.561 6 101372930.432 6  24756281.516    24756287.246
  24756286.383          37.200          38.900
 126538150.709 6  98601253.85243  24079427.961
  24079430.180          40.900          22.300
 106916912.548 7  83311908.269 8  20345603.742    20345606.898
  20345607.301          45.300          50.200
 111737129.500 8  87067922.275 8  21262862.922    21262865.063
  21262866.020          48.700          48.200
 119692957.065 7  93267338.11745  22776825.867
  22776827.598          45.300          33.400
 121275648.707 7  94500542.80545  23077977.133
  23077979.277          45.400          31.300
 127840046.029 6  99615629.75644  24327149.492
  24327151.387          40.800          27.700
 109634361.615 7  85429401.12646  20862717.188
  20862719.121          45.900          39.300
 111545366.383 8  86918499.327 8  21226371.641    21226376.973
  21226376.785          48.000          48.700
 21  2  1  0  6 30.0000000  0 13G01G03G06G07G08G13G14G17G19G21G22G28
                                G30
 108736541.561 7  84729851.368 8  20691869.953    20691875.922
  20691876.453          46.100          50.200
 130877845.546 5 101982758.130 6  24905224.164    24905231.266
  24905230.859          35.200          36.200
 131747837.916 5 102660676.704 6  25070780.375    25070788.598
  25070787.426          35.500          37.800
 120809300.011 7  94137139.144 6  22989240.359    22989243.938
  22989243.895          43.200          41.800
 130141674.358 6 101409199.064 6  24765137.961    24765143.996
  24765143.250          36.500          38.700
 126564474.090 6  98621765.57843  24084436.727
  24084438.984          39.400          22.300
 106908300.413 7  83305197.498 8  20343964.922    20343967.664
  20343968.250          44.600          49.800
 111717920.594 8  87052954.295 7  21259207.367    21259210.316
  21259210.320          49.600          47.700
 119651509.847 7  93235041.59145  22768938.336
  22768940.098          44.400          33.300
 121314606.030 7  94530899.13045  23085390.883
  23085392.660          45.400          31.300
 127814268.517 6  99595543.36544  24322245.734
  24322246.469          40.800          28.300
 109620326.291 7  85418464.50946  20860046.477
  20860048.598          46.200          39.000
 111578524.280 7  86944336.668 8  21232681.922    21232686.477
  21232686.238          47.000          48.400
 21  2  1  0  6 45.0000000  0 13G01G03G06G07G08G13G14G17G19G21G22G28
                                G30
 108752040.308 7  84741928.297 8  20694820.000    20694825.297
  20694825.672          46.600          49.900
 130836428.956 5 101950485.434 5  24897342.734    24897349.934
  24897349.738          35.900          34.500
 131689746.448 5 102615410.682 6  25059725.906    25059734.051
  25059732.703          35.100          37.300
 120863084.620 7  94179049.211 7  22999475.508    22999478.422
  22999478.480          43.700          42.700
 130188209.663 6 101445460.344 6  24773994.203    24773999.715
  24773999.137          37.200          38.600
 126590892.927 6  98642351.69643  24089463.836
  24089466.680          39.600          22.500
 106899768.528 7  83298549.264 8  20342341.836    20342344.258
  20342344.461          45.700          50.100
 111698786.263 8  87038044.444 8  21255566.281    21255568.840
  21255568.910          50.200          48.500
 119610120.595 7  93202790.23245  22761062.508
  22761064.512          45.300          32.200
 121353638.804 7  94561314.28345  23092818.258
  23092820.223          44.800          31.600
 127788570.408 7  99575518.87744  24317354.664
  24317355.953          42.300          28.800
 109606340.863 7  85407566.77546  20857384.672
  20857386.770          45.200          39.600
 111611800.493 8  86970266.169 8  21239014.109    21239019.207
  21239018.594          48.200          49.100
 21  2  1  0  7  0.0000000  0 13G01G03G06G07G08G13G14G17G19G21G22G28
                                G30
 108767698.884 8  84754129.797 8  20697799.891    20697804.148
  20697804.414          48.200          48.600
 130795028.104 5 101918224.981 5  24889464.266    24889471.539
  24889471.207          34.600          34.800
 131631657.154 5 102570146.387 6  25048672.039    25048680.121
  25048679.367          34.300          39.700
 120916921.400 7  94220999.943 7  23009720.969    23009723.277
  23009723.320          44.200          42.400
 130234735.837 6 101481714.511 6  24782847.570    24782853.129
  24782852.473          37.100          37.400
 126617407.265 6  98663012.19444  24094509.813
  24094512.668          41.800          24.100
 106891317.423 7  83291963.994 8  20340733.484    20340736.203
  20340736.461          45.400          50.200
 111679726.675 8  87023192.815 7  21251939.711    21251942.109
  21251942.348          49.500          47.900
 119568789.803 7  93170584.42145  22753198.055
  22753199.359          44.000          33.600
 121392747.270 7  94591788.39145  23100261.031
  23100262.066          44.600          31.000
 127762952.419 7  99555556.86044  24312479.305
  24312480.563          43.500          27.300
 109592405.832 7  85396708.31046  20854733.109
  20854735.098          45.400          39.200
 111645195.086 8  86996287.943 8  21245368.281    21245373.660
  21245373.371          48.000          48.300
 21  2  1  0  7 15.0000000  0 13G01G03G06G07G08G13G14G17G19G21G22G28
                                G30
 108783516.676 7  84766455.354 8  20700809.992    20700814.363
  20700814.250          47.600          48.300
 130753642.889 5 101885976.805 5  24881589.867    24881597.059
  24881595.758          35.200          35.300
 131573569.747 5 102524883.535 6  25037618.570    25037626.117
  25037625.582          34.300          40.400
 120970809.616 7  94262990.729 6  23019974.852    23019978.031
  23019977.895          44.100          41.000
 130281252.384 6 101517961.124 6  24791699.000    24791704.465
  24791704.703          36.600          38.400
 126644016.298 6  98683746.49943  24099573.242
  24099575.719          40.200          22.500
 106882946.847 7  83285441.453 8  20339140.617    20339143.371
  20339143.895          45.700          50.300
 111660741.343 8  87008399.074 7  21248326.133    21248328.719
  21248328.949          49.300          47.500
 119527517.206 7  93138423.99845  22745343.477
  22745344.906          44.500          33.000
 121431930.668 7  94622320.91445  23107716.945
  23107718.594          45.700          31.800
 127737414.523 7  99535657.23944  24307619.594
  24307621.441          42.100          27.600
 109578520.915 7  85385888.89046  20852090.984
  20852092.688          46.100          40.000
 111678707.439 8  87022401.453 8  21251745.695    21251750.750
  21251750.590          49.100          48.200
 21  2  1  0  7 30.0000000  0 13G01G03G06G07G08G13G14G17G19G21G22G28
                                G30
 108799493.684 8  84778905.001 8  20703849.789    20703854.906
  20703854.832          48.700          48.200
 130712273.801 6 101853741.148 5  24873717.258    24873724.016
  24873722.102          39.200          35.600
 131515484.789 5 102479622.583 6  25026563.664    25026572.949
  25026572.129          33.300          40.100
 121024749.126 7  94305021.494 6  23030239.414    23030241.840
  23030241.680          44.900          40.400
 130327759.358 5 101554200.332 6  24800547.961    24800554.727
  24800555.102          35.000          38.400
 126670719.780 6  98704554.42243  24104654.961
  24104657.469          40.200          23.000
 106874657.093 7  83278981.900 8  20337563.266    20337565.961
  20337566.398          45.000          50.100
 111641830.532 7  86993663.374 7  21244727.961    21244730.387
  21244730.918          47.700          47.600
 119486303.204 7  93106309.18245  22737500.859
  22737501.688          44.700          32.600
 121471188.982 7  94652911.80545  23115188.172
  23115188.805          45.600          30.800
 127711957.282 7  99515820.41944  24302775.281
  24302776.391          42.900          25.800
 109564686.417 7  85375108.74546  20849458.570
  20849460.535          46.700          40.300
 111712337.422 8  87048606.635 8  21258145.180    21258150.199
  21258149.660          48.100          48.400
 21  2  1  0  7 45.0000000  0 13G01G03G06G07G08G13G14G17G19G21G22G28
                                G30
 108815629.815 8  84791478.623 8  20706920.281    20706925.676
  20706925.641          48.300          49.100
 130670921.459 6 101821518.540 5  24865848.813    24865855.492
  24865853.234          39.800          35.400
 131457402.643 5 102434363.856 6  25015510.727    25015520.508
  25015519.762          34.300          39.300
 121078739.505 7  94347091.917 6  23040513.219    23040515.875
  23040515.977          44.200          40.500
 130374256.625 5 101590431.941 6  24809397.195    24809402.223
  24809402.816          33.700          38.300
 126697517.570 6  98725435.79443  24109754.430
  24109757.609          41.100          22.900
 106866448.358 7  83272585.490 8  20336000.820    20336003.887
  20336004.324          45.200          51.000
 111622994.160 8  86978985.676 7  21241143.547    21241146.070
  21241146.039          48.300          47.700
 119445147.863 7  93074240.08745  22729668.883
  22729669.844          44.600          32.500
 121510521.952 7  94683560.88745  23122672.695
  23122673.793          46.300          32.400
 127686581.027 6  99496046.74444  24297945.797
  24297947.113          41.700          24.700
 109550902.516 7  85364368.03946  20846835.352
  20846836.984          46.600          41.100
 111746084.915 8  87074903.376 8  21264567.352    21264571.805
  21264572.324          48.600          49.400
 21  2  1  0  8  0.0000000  0 13G01G03G06G07G08G13G14G17G19G21G22G28
                                G30
 108831924.695 8  84804175.925 8  20710021.000    20710026.480
  20710026.961          48.100          49.500
 130629585.969 6 101789309.099 6  24857981.555    24857988.910
  24857987.512          37.600          36.400
 131399323.513 5 102389107.420 6  25004459.180    25004468.379
  25004467.559          34.600          39.000
 121132780.380 7  94389201.716 6  23050797.023    23050799.594
  23050799.551          43.800          41.100
 130420744.170 5 101626655.968 6  24818244.180    24818248.992
  24818248.586          32.900          38.000
 126724409.266 6  98746390.37944  24114871.555
  24114874.844          40.500          25.300
 106858320.677 7  83266252.224 8  20334454.188    20334457.727
  20334457.824          45.200          50.700
 111604231.875 8  86964365.727 7  21237573.305    21237575.469
  21237575.418          49.000          47.500
 119404051.171 7  93042216.68245  22721849.211
  22721849.488          44.100          33.500
 121549929.123 7  94714267.78445  23130171.344
  23130172.852          45.200          30.900
 127661285.865 6  99476336.20744  24293133.563
  24293133.258          40.000          25.200
 109537169.181 7  85353666.74946  20844221.938
  20844224.199          47.400          41.000
 111779949.432 8  87101291.319 8  21271010.992    21271016.590
  21271016.215          48.900          48.700
 21  2  1  0  8 15.0000000  0 13G01G03G06G07G08G13G14G17G19G21G22G28
                                G30
 108848378.374 7  84816996.977 8  20713152.156    20713157.258
  20713157.465          47.500          49.500
 130588268.046 6 101757113.343 6  24850119.961    24850126.426
  24850125.465          38.100          38.500
 131341247.800 5 102343853.687 6  24993408.727    24993416.418
  24993415.770          35.700          38.400
 121186871.624 7  94431350.698 6  23061089.125    23061092.266
  23061092.613          42.900          41.400
 130467221.760 5 101662872.315 6  24827085.523    24827093.984
  24827093.801          32.800          37.700
 126751394.593 6  98767417.91344  24120006.867
  24120010.414          41.500          25.300
 106850274.333 7  83259982.366 8  20332922.813    20332926.262
  20332926.676          44.600          51.300
 111585543.885 8  86949803.657 7  21234017.273    21234019.684
  21234019.605          48.300          47.300
 119363013.354 7  93010239.18345  22714039.977
  22714040.816          45.100          33.500
 121589410.411 7  94745032.41745  23137684.977
  23137686.094          45.800          32.100
 127636072.367 6  99456689.28143  24288336.031
  24288333.664          41.400          22.900
 109523486.732 8  85343005.09146  20841618.398
  20841620.258          48.400          40.600
 111813930.923 8  87127770.408 8  21277477.641    21277483.438
  21277483.180          48.800          49.300
 21  2  1  0  8 30.0000000  0 13G01G03G06G07G08G13G14G17G19G21G22G28
                                G30
 108864990.493 8  84829941.469 8  20716313.344    20716318.242
  20716318.434          48.000          48.200
 130546967.824 6 101724931.357 6  24842259.406    24842266.719
  24842266.316          36.500          39.200
 131283175.743 6 102298602.780 6  24982357.953    24982365.160
  24982364.598          36.800          38.700
 121241012.766 7  94473538.600 6  23071392.547    23071394.965
  23071394.992          42.300          39.500
 130513689.552 5 101699080.984 6  24835929.453    24835936.969
  24835935.941          33.500          38.000
 126778473.110 6  98788518.02144  24125159.719
  24125162.859          40.500          24.800
 106842309.360 7  83253775.896 8  20331407.844    20331410.797
  20331410.977          44.300          51.100
 111566930.241 8  86935299.538 7  21230474.875    21230477.363
  21230477.316          49.100          47.800
 119322034.271 7  92978307.44245  22706241.500
  22706243.191          45.600          33.100
 121628965.346 7  94775854.44045  23145211.594
  23145213.078          45.600          31.900
 127610940.571 7  99437106.11943  24283552.242
  24283551.070          42.600          22.000
 109509855.196 7  85332383.12146  20839024.117
  20839026.500          47.600          41.200
 111848029.031 8  87154340.363 8  21283966.180    21283971.961
  21283971.586          48.700          49.400
 21  2  1  0  8 45.0000000  0 13G01G03G06G07G08G13G14G17G19G21G22G28
                                G30
 108881760.934 8  84843009.352 8  20719504.875    20719509.840
  20719510.066          48.000          48.000
 130505685.829 6 101692763.591 6  24834404.203    24834411.332
  24834411.078          37.300          39.800
 131225107.664 6 102253354.968 6  24971308.969    24971315.527
  24971314.984          37.100          38.700
 121295203.476 7  94515765.118 6  23081705.438    23081707.449
  23081707.109          43.600          39.500
 130560147.149 5 101735281.735 6  24844770.453    24844777.172
  24844776.051          33.000          36.500
 126805644.519 6  98809690.56644  24130329.977
  24130333.723          40.500          25.000
 106834425.961 7  83247633.003 8  20329907.305    20329910.473
  20329910.520          45.400          51.500
 111548390.832 8  86920853.236 8  21226947.031    21226949.102
  21226949.688          48.400          48.200
 119281114.061 7  92946421.57845  22698454.453
  22698455.914          44.600          32.600
 121668593.683 7  94806733.64945  23152752.773
  23152754.129          45.500          31.200
 127585891.125 6  99417587.07543  24278786.813
  24278784.707          40.200          21.700
 109496274.933 7  85321801.08946  20836440.211
  20836442.207          47.500          40.400
 111882243.555 8  87181001.015 8  21290477.023    21290482.523
  21290482.336          48.700          49.200
 21  2  1  0  9  0.0000000  0 13G01G03G06G07G08G13G14G17G19G21G22G28
                                G30
 108898689.322 7  84856200.315 8  20722725.672    20722731.414
  20722731.500          47.400          48.100
 130464422.229 5 101660610.147 6  24826552.852    24826559.328
  24826559.477          35.500          39.400
 131167043.629 6 102208110.279 6  24960259.047    24960266.105
  24960265.266          37.200          38.200
 121349443.031 7  94558029.693 6  23092025.594    23092028.828
  23092029.043          43.500          39.900
 130606594.696 5 101771474.620 6  24853608.547    24853615.246
  24853614.168          34.900          36.100
 126832908.281 6  98830935.04743  24135517.516
  24135521.656          39.900          22.200
 106826624.066 7  83241553.603 8  20328422.695    20328425.551
  20328425.793          45.900          51.900
 111529925.114 8  86906464.377 7  21223433.016    21223435.633
  21223435.141          48.000          46.400
 119240252.711 7  92914581.57245  22690678.898
  22690680.137          44.700          33.600
 121708294.888 7  94837669.66345  23160307.117
  23160309.156          45.700          30.900
 127560923.954 7  99398132.11543  24274035.609
  24274034.277          43.600          23.900
 109482745.605 8  85311258.76646  20833865.391
  20833867.535          48.000          40.800
 111916573.959 8  87207751.997 8  21297010.109    21297015.563
  21297015.020          48.100          49.200
 21  2  1  0  9 15.0000000  0 13G01G03G06G07G08G13G14G17G19G21G22G28
                                G30
 108915775.709 7  84869514.381 8  20725977.633    20725982.621
  20725982.805          47.100          48.300
 130423177.680 6 101628471.531 6  24818704.336    24818711.195
  24818711.281          36.600          36.600
 131108984.301 6 102162869.248 6  24949210.211    24949217.668
  24949217.066          38.700          37.000
 121403731.575 7  94600332.434 6  23102357.859    23102359.453
  23102359.848          42.100          40.200
 130653031.998 6 101807659.483 6  24862446.461    24862452.441
  24862451.688          36.700          37.200
 126860264.292 6  98852251.39843  24140723.227
  24140727.305          39.200          22.000
 106818904.048 7  83235538.005 8  20326953.820    20326956.789
  20326957.129          46.400          51.900
 111511533.598 8  86892133.330 7  21219933.383    21219936.051
  21219935.215          48.600          46.800
 119199450.497 7  92882787.63245  22682915.109
  22682916.027          45.000          33.200
 121748068.962 7  94868662.44245  23167875.773
  23167878.047          45.600          31.500
 127536039.592 6  99378741.72243  24269299.977
  24269299.516          40.800          21.800
 109469267.680 8  85300756.49346  20831300.570
  20831302.453          48.100          40.600
 111951020.304 8  87234593.276 8  21303565.125    21303570.301
  21303569.793          48.700          49.300
 21  2  1  0  9 30.0000000  0 13G01G03G06G07G08G13G14G17G19G21G22G28
                                G30
 108933019.707 7  84882951.271 8  20729259.438    20729264.527
  20729264.875          46.800          48.200
 130381952.333 6 101596347.933 6  24810858.234    24810866.211
  24810866.031          37.100          38.300
 131050929.764 6 102117632.001 5  24938162.797    24938171.262
  24938169.977          38.000          35.100
 121458068.416 7  94642672.841 6  23112698.016    23112699.410
  23112700.160          43.700          40.800
 130699458.826 5 101843836.247 6  24871280.930    24871287.215
  24871287.230          35.700          39.000
 126887712.141 6  98873639.33743  24145946.844
  24145950.758          40.200          22.200
 106811265.892 7  83229586.202 8  20325500.508    20325502.949
  20325503.418          46.000          51.100
 111493215.947 8  86877859.833 8  21216447.281    21216449.867
  21216450.438          48.900          48.800
 119158707.278 7  92851039.70145  22675161.375
  22675162.598          45.100          32.700
 121787915.545 7  94899711.72645  23175458.594
  23175460.492          45.800          32.100
 127511238.322 6  99359416.01443  24264581.000
  24264579.965          38.300          22.300
 109455841.123 7  85290294.24946  20828745.828
  20828747.375          47.500          40.800
 111985582.134 7  87261524.581 8  21310141.844    21310146.973
  21310146.906          47.600          48.800
 21  2  1  0  9 45.0000000  0 13G01G03G06G07G08G13G14G17G19G21G22G28
                                G30
 108950421.113 7  84896510.811 8  20732571.008    20732575.855
  20732576.156          47.600          48.900
 130340746.748 5 101564239.730 6  24803017.742    24803025.520
  24803025.426          35.900          39.800
 130992880.260 6 102072398.664 6  24927116.313    24927124.203
  24927123.141          37.500          36.000
 121512453.500 7  94685050.812 6  23123046.172    23123049.055
  23123049.363          44.200          41.100
 130745875.117 5 101880004.797 6  24880113.234    24880119.961
  24880119.305          35.500          38.800
 126915251.558 6  98895098.61943  24151188.313
  24151190.805          39.700          21.300
 106803709.773 7  83223698.301 8  20324062.617    20324064.563
  20324064.738          45.700          50.500
 111474972.132 8  86863643.877 8  21212975.727    21212978.645
  21212978.777          48.200          48.200
 119118023.237 7  92819337.87545  22667419.078
  22667420.563          43.900          33.300
 121827834.215 7  94930817.20445  23183054.758
  23183057.754          45.000          32.300
 127486520.534 6  99340155.44143  24259876.523
  24259875.273          39.400          21.100
 109442466.033 8  85279872.10846  20826200.359
  20826201.980          48.500          40.500
 112020259.207 8  87288545.673 8  21316741.117    21316746.105
  21316745.996          49.300          49.100
 21  2  1  0 10  0.0000000  0 13G01G03G06G07G08G13G14G17G19G21G22G28
                                G30
 108967979.902 7  84910192.986 8  20735912.336    20735917.297
  20735917.699          47.500          49.500
 130299561.329 6 101532147.189 6  24795179.703    24795188.078
  24795188.730          36.000          41.000
 130934836.300 6 102027169.641 6  24916070.781    24916078.676
  24916077.711          37.500          36.800
 121566886.450 7  94727466.089 7  23133405.625    23133407.449
  23133407.672          44.700          42.900
 130792280.895 5 101916165.133 6  24888944.461    24888951.047
  24888950.023          35.500          37.900
 126942882.090 6  98916628.87443  24156445.680
  24156448.355          38.100          18.600
 106796235.876 7  83217874.487 8  20322640.539    20322642.551
  20322642.590          45.600          50.600
 111456802.306 8  86849485.585 8  21209518.148    21209520.656
  21209520.832          48.900          48.600
 119077398.625 7  92787682.32045  22659688.875
  22659690.305          44.900          33.300
 121867824.711 7  94961978.62245  23190665.461
  23190667.652          45.400          32.300
 127461886.373 6  99320960.05243  24255188.625
  24255187.195          40.400          21.100
 109429142.759 7  85269490.34846  20823665.430
  20823667.234          47.200          40.400
 112055051.362 8  87315656.437 8  21323361.609    21323366.863
  21323366.414          48.900          48.400
 21  2  1  0 10 15.0000000  0 13G01G03G06G07G08G13G14G17G19G21G22G28
                                G30
 108985695.867 7  84923997.628 8  20739283.047    20739288.352
  20739288.863          47.000          49.000
 130258396.491 6 101500070.714 5  24787346.906    24787354.031
  24787354.418          36.200          35.700
 130876798.112 6 101981945.098 6  24905025.992    24905034.137
  24905033.461          37.800          38.300
 121621366.946 7  94769918.410 6  23143772.141    23143775.582
  23143775.637          45.400          41.200
 130838676.223 5 101952317.308 6  24897772.547    24897779.605
  24897779.004          35.700          40.300
 126970603.418 6  98938229.93343  24161720.781
  24161722.938          39.100          19.900
 106788844.419 7  83212114.901 8  20321233.492    20321235.664
  20321235.629          45.000          50.500
 111438706.352 8  86835384.854 8  21206074.430    21206077.316
  21206077.918          48.300          49.300
 119036833.452 7  92756073.10345  22651969.203
  22651970.680          44.700          32.700
 121907887.002 7  94993196.00945  23198288.453
  23198290.645          46.300          32.100
 127437336.376 6  99301830.22643  24250516.844
  24250516.031          40.800          22.200
 109415871.498 8  85259149.12246  20821139.805
  20821141.789          48.900          39.600
 112089958.321 8  87342856.649 8  21330004.430    21330009.359
  21330009.414          48.500          49.100
 21  2  1  0 10 30.0000000  0 13G01G03G06G07G08G13G14G17G19G21G22G28
                                G30
 109003568.795 7  84937924.578 8  20742684.313    20742689.645
  20742690.078          46.600          49.400
 130217252.590 6 101468010.546 6  24779518.406    24779523.828
  24779524.570          37.900          36.100
 130818766.005 5 101936725.326 6  24893983.313    24893991.059
  24893990.785          35.500          38.600
 121675894.595 7  94812407.472 7  23154147.828    23154151.895
  23154151.801          43.500          42.600
 130885060.721 6 101988461.098 6  24906600.039    24906605.766
  24906605.574          37.400          39.000
 126998415.307 6  98959901.53543  24167012.047
  24167015.984          40.100          21.500
 106781535.481 7  83206419.635 8  20319842.617    20319844.828
  20319845.266          45.900          50.900
 111420684.190 8  86821341.608 7  21202644.875    21202647.906
  21202648.102          48.200          47.900
 118996327.800 7  92724510.26445  22644261.875
  22644262.676          44.500          32.800
 121948020.787 7  95024469.08645  23205925.602
  23205928.055          45.800          31.800
 127412871.018 6  99282766.34643  24245860.664
  24245862.082          40.200          22.900
 109402652.266 8  85248848.43346  20818624.367
  20818625.953          48.400          39.200
 112124979.833 8  87370146.145 8  21336668.695    21336673.840
  21336673.863          48.400          49.400
 21  2  1  0 10 45.0000000  0 13G01G03G06G07G08G13G14G17G19G21G22G28
                                G30
 109021598.219 7  84951973.489 8  20746115.031    20746120.008
  20746120.328          46.800          49.600
 130176129.832 6 101435966.821 6  24771692.195    24771699.027
  24771699.344          37.600          36.500
 130760740.125 5 101891510.346 6  24882940.180    24882948.680
  24882948.762          33.200          39.200
 121730468.817 7  94854932.797 6  23164533.016    23164536.336
  23164536.977          43.100          41.900
 130931434.141 6 102024596.183 6  24915424.656    24915431.219
  24915429.543          38.200          38.900
 127026317.320 6  98981643.36643  24172323.125
  24172326.781          40.400          21.300
 106774308.993 7  83200788.619 8  20318466.992    20318470.563
  20318470.707          46.200          52.300
 111402735.621 8  86807355.722 8  21199229.797    21199232.250
  21199232.398          48.800          48.600
 118955881.392 7  92692993.59145  22636565.008
  22636566.188          44.200          33.100
 121988225.520 7  95055797.45545  23213576.461
  23213578.887          45.500          31.200
 127388490.191 6  99263768.26843  24241221.414
  24241222.859          39.000          23.800
 109389484.887 7  85238588.15446  20816118.859
  20816120.688          47.600          38.500
 112160115.397 8  87397524.504 8  21343354.805    21343359.871
  21343360.020          49.000          48.900
 21  2  1  0 11  0.0000000  0 12G01G03G07G08G13G14G17G19G21G22G28G30
 109039783.974 8  84966144.202 8  20749576.297    20749580.727
  20749581.324          48.100          49.100
 130135028.662 6 101403939.960 5  24763871.234    24763877.555
  24763877.586          37.100          33.500
 121785089.264 7  94897494.139 7  23174926.711    23174930.828
  23174931.191          42.600          43.200
 130977796.541 6 102060722.699 6  24924247.484    24924253.906
  24924253.289          37.800          39.400
 127054308.970 6  99003455.00743  24177649.203
  24177652.395          39.600          21.300
 106767165.106 7  83195221.952 8  20317107.859    20317111.188
  20317111.328          46.700          51.900
 111384860.446 8  86793427.020 8  21195828.406    21195830.805
  21195831.273          49.200          48.000
 118915494.395 7  92661523.22945  22628879.539
  22628880.746          45.200          33.000
 122028500.774 7  95087180.78045  23221240.055
  23221242.750          44.300          30.000
 127364194.215 6  99244836.31343  24236597.578
  24236599.164          39.600          22.300
 109376369.604 8  85228368.48646  20813622.867
  20813624.820          48.200          38.700
 112195364.733 8  87424991.523 8  21350062.211    21350067.883
  21350067.406          48.800          49.100
 21  2  1  0 11 15.0000000  0 12G01G03G07G08G13G14G17G19G21G22G28G30
 109058126.192 7  84980436.852 8  20753066.422    20753071.031
  20753071.863          46.900          49.100
 130093949.739 6 101371930.389 5  24756054.828    24756059.785
  24756059.020          36.400          34.500
 121839755.921 7  94940091.515 7  23185329.094    23185333.113
  23185333.730          42.500          42.300
 131024148.147 5 102096840.855 6  24933067.898    24933074.320
  24933074.469          35.500          40.800
 127082390.218 6  99025336.50043  24182993.094
  24182995.699          39.800          21.500
 106760104.323 7  83189720.054 8  20315764.203    20315767.422
  20315767.570          47.800          52.900
 111367059.157 8  86779555.877 8  21192440.625    21192443.238
  21192443.797          49.100          48.700
 118875167.326 7  92630099.54645  22621205.719
  22621206.348          43.500          32.600
 122068846.667 7  95118619.13345  23228918.125
  23228920.480          44.300          30.700
 127339983.693 6  99225971.04544  24231990.852
  24231991.117          40.600          24.000
 109363306.768 7  85218189.67046  20811137.336
  20811139.281          46.800          38.400
 112230727.952 8  87452547.268 8  21356791.367    21356797.578
  21356797.082          48.900          49.300
 21  2  1  0 11 30.0000000  0 12G01G03G07G08G13G14G17G19G21G22G28G30
 109076624.271 7  84994850.959 8  20756586.516    20756591.219
  20756591.797          47.900          49.300
 130052893.126 6 101339938.158 5  24748241.117    24748246.188
  24748246.082          36.100          35.700
 121894468.204 6  94982724.457 6  23195741.305    23195744.477
  23195744.992          41.300          40.800
 131070488.454 5 102132950.169 6  24941885.938    24941892.172
  24941892.117          34.600          38.900
 127110560.408 6  99047287.27543  24188353.570
  24188356.324          40.000          20.600
 106753126.372 7  83184282.692 8  20314436.563    20314439.844
  20314439.969          47.700          53.000
 111349331.252 8  86765741.919 8  21189067.281    21189069.805
  21189070.523          49.600          49.100
 118834899.865 7  92598722.28845  22613543.570
  22613543.734          43.400          32.600
 122109262.334 7  95150111.87644  23236608.336
  23236611.016          43.900          29.600
 127315858.636 6  99207172.33344  24227400.688
  24227400.063          40.600          24.700
 109350296.246 7  85208051.63246  20808661.602
  20808663.289          46.700          38.400
 112266204.356 8  87480191.223 8  21363542.422    21363548.371
  21363547.746          48.100          48.200
 21  2  1  0 11 45.0000000  0 13G01G03G06G07G08G13G14G17G19G21G22G28
                                G30
 109095278.401 7  85009386.658 8  20760135.930    20760141.219
  20760141.734          46.800          48.900
 130011859.501 5 101307963.872 5  24740432.789    24740437.855
  24740437.695          35.200          35.400
 130528700.505 5 101710709.529 6  24838785.977    24838794.246
  24838793.383          33.700          41.600
 121949226.242 6  95025393.023 6  23206161.219    23206164.410
  23206164.781          41.100          40.500
 131116817.809 5 102169050.858 6  24950701.594    24950708.094
  24950707.090          33.700          37.700
 127138819.602 6  99069307.47843  24193731.180
  24193733.824          39.000          21.100
 106746231.784 7  83178910.282 8  20313124.875    20313127.734
  20313128.051          47.500          53.000
 111331676.946 8  86751985.330 8  21185707.813    21185710.309
  21185710.219          49.400          48.200
 118794692.538 7  92567391.91745  22605891.734
  22605892.074          44.700          33.100
 122149747.857 7  95181659.02044  23244312.617
  23244314.969          43.800          29.300
 127291819.677 7  99188440.71544  24222826.148
  24222826.871          42.000          27.100
 109337338.630 7  85197954.80746  20806195.445
  20806198.004          47.300          38.700
 112301794.119 8  87507923.477 8  21370314.703    21370320.750
  21370320.449          48.600          48.500
 21  2  1  0 12  0.0000000  0 13G01G03G06G07G08G13G14G17G19G21G22G28
                                G30
 109114088.427 7  85024043.812 8  20763715.250    20763720.855
  20763721.445          46.900          49.500
 129970849.404 5 101276008.016 5  24732628.648    24732632.453
  24732634.480          35.800          31.900
 130470711.076 6 101665522.981 6  24827750.398    24827759.367
  24827758.949          37.600          41.300
 122004029.357 7  95068096.767 6  23216590.414    23216592.371
  23216592.719          42.200          38.300
 131163136.114 5 102205143.032 6  24959516.297    24959521.918
  24959520.957          33.200          36.700
 127167167.418 6  99091396.69443  24199125.578
  24199128.293          39.000          21.100
 106739420.690 8  83173602.928 8  20311828.789    20311831.652
  20311831.934          48.500          53.200
 111314096.322 8  86738286.172 8  21182362.383    21182364.664
  21182364.711          49.100          48.400
 118754545.301 7  92536108.36245  22598251.781
  22598252.773          44.300          32.600
 122190303.271 7  95213260.65445  23252030.773
  23252032.277          43.000          30.800
 127267867.190 6  99169776.44544  24218268.227
  24218268.832          41.700          28.000
 109324434.068 7  85187899.30646  20803739.938
  20803741.691          46.700          38.800
 112337496.913 8  87535743.847 8  21377108.961    21377114.727
  21377114.527          48.100          48.800
 21  2  1  0 12 15.0000000  0 13G01G03G06G07G08G13G14G17G19G21G22G28
                                G30
 109133053.739 7  85038821.963 8  20767324.102    20767329.891
  20767330.691          47.200          49.200
 129929862.737 6 101244070.427 5  24724828.383    24724834.918
  24724834.813          36.700          35.600
 130412729.664 6 101620342.681 6  24816718.273    24816725.270
  24816725.234          37.500          39.900
 122058876.940 7  95110835.163 6  23227027.008    23227029.129
  23227029.563          42.600          38.800
 131209442.795 5 102241226.221 5  24968328.102    24968332.914
  24968332.555          34.700          34.400
 127195603.124 6  99113554.37943  24204536.742
  24204539.484          40.900          21.700
 106732692.877 8  83168360.475 8  20310548.242    20310551.172
  20310551.480          48.800          53.300
 111296588.904 8  86724644.019 8  21179030.258    21179033.094
  21179033.641          49.000          48.300
 118714457.877 7  92504871.42745  22590623.344
  22590624.371          44.500          33.100
 122230927.899 7  95244916.20845  23259761.266
  23259762.824          44.900          30.900
 127244001.140 6  99151179.53044  24213727.023
  24213727.770          41.800          28.400
 109311582.266 7  85177884.91246  20801293.984
  20801295.926          46.200          38.500
 112373312.124 8  87563651.790 8  21383924.977    21383929.934
  21383929.813          48.500          49.000
 21  2  1  0 12 30.0000000  0 13G01G03G06G07G08G13G14G17G19G21G22G28
                                G30
 109152174.163 7  85053720.982 8  20770962.891    20770968.438
  20770969.344          47.500          50.300
 129888900.184 5 101212151.586 6  24717033.031    24717040.258
  24717040.398          33.100          36.100
 130354756.676 6 101575168.946 6  24805686.047    24805693.129
  24805693.535          39.400          38.700
 122113768.960 7  95153608.133 6  23237472.773    23237474.699
  23237475.430          42.800          37.800
 131255737.975 6 102277300.392 5  24977137.547    24977142.332
  24977141.930          37.600          33.800
 127224126.617 6  99135780.46643  24209963.906
  24209966.723          39.200          20.100
 106726048.608 8  83163183.123 8  20309284.000    20309287.059
  20309287.297          48.000          53.000
 111279154.887 8  86711059.068 7  21175713.227    21175715.563
  21175715.676          48.500          47.600
 118674430.697 7  92473681.41745  22583006.539
  22583007.156          44.000          33.500
 122271621.602 7  95276625.57145  23267504.844
  23267507.176          44.100          31.400
 127220221.920 7  99132650.26844  24209201.344
  24209202.207          42.300          27.500
 109298783.474 7  85167911.81346  20798858.852
  20798860.418          46.000          38.600
 112409239.614 8  87591647.231 8  21390761.336    21390766.605
  21390766.461          48.800          48.300
 21  2  1  0 12 45.0000000  0 13G01G03G06G07G08G13G14G17G19G21G22G28
                                G30
 109171449.345 7  85068740.615 8  20774630.914    20774636.617
  20774637.582          47.800          50.000
 129847961.836 4 101180251.579 6  24709239.055    24709250.504
  24709249.602          29.900          36.500
 130296792.169 6 101530001.845 6  24794655.406    24794663.578
  24794663.383          39.500          38.100
 122168704.672 7  95196415.190 6  23247926.836    23247928.055
  23247928.688          42.900          36.900
 131302021.528 6 102313365.431 5  24985946.141    24985949.727
  24985949.402          36.400          33.500
 127252737.282 6  99158074.52043  24215409.469
  24215410.984          41.100          20.900
 106719487.755 8  83158070.772 8  20308035.313    20308038.121
  20308038.520          48.100          52.900
 111261793.821 8  86697530.963 7  21172409.352    21172411.852
  21172411.844          48.700          47.300
 118634463.234 7  92442537.93645  22575401.391
  22575402.625          44.900          33.800
 122312383.761 7  95308388.29845  23275260.844
  23275263.992          44.600          30.000
 127196529.482 7  99114188.65444  24204692.797
  24204693.398          43.200          28.100
 109286037.568 7  85157979.93446  20796433.203
  20796435.254          45.000          38.700
 112445278.812 7  87619729.735 8  21397619.289    21397624.887
  21397624.617          47.400          48.700
 21  2  1  0 13  0.0000000  0 13G01G03G06G07G08G13G14G17G19G21G22G28
                                G30
 109190879.264 8  85083880.817 8  20778328.313    20778333.777
  20778334.715          48.300          49.900
 129807048.313 5 101148370.920 6  24701458.945    24701465.520
  24701465.016          34.400          38.100
 130238836.687 6 101484841.715 6  24783626.430    24783634.102
  24783633.867          37.100          36.500
 122223684.042 7  95239256.252 6  23258389.617    23258391.184
  23258390.859          44.300          37.700
 131348293.260 6 102349421.379 5  24994750.828    24994756.363
  24994755.109          37.000          34.500
 127281434.926 6  99180436.31543  24220869.625
  24220871.957          41.000          21.100
 106713010.720 7  83153023.724 8  20306802.461    20306805.754
  20306806.020          46.800          53.900
 111244505.813 8  86684059.807 7  21169119.578    21169122.035
  21169122.262          48.700          47.500
 118594555.946 7  92411441.35045  22567806.813
  22567807.430          44.300          32.900
 122353214.208 7  95340204.21345  23283031.617
  23283033.398          43.700          30.200
 127172924.535 7  99095795.23344  24200200.758
  24200201.316          43.700          27.900
 109273344.923 7  85148089.53746  20794017.828
  20794020.004          46.200          38.100
 112481429.759 8  87647899.259 7  21404498.734    21404503.965
  21404503.824          48.500          47.200
 21  2  1  0 13 15.0000000  0 13G01G03G06G07G08G13G14G17G19G21G22G28
                                G30
 109210463.945 8  85099141.609 8  20782054.969    20782060.418
  20782061.035          48.200          48.900
 129766160.172 5 101116510.019 6  24693677.734    24693684.563
  24693684.703          35.800          40.500
 130180890.676 6 101439689.015 5  24772600.344    24772607.320
  24772606.996          37.000          33.800
 122278706.983 7  95282131.335 6  23268859.914    23268862.059
  23268861.648          44.400          39.100
 131394553.562 6 102385468.394 5  25003554.172    25003558.387
  25003557.395          38.200          31.200
 127310219.548 6  99202865.84943  24226347.836
  24226349.984          38.800          21.500
 106706617.829 7  83148042.273 9  20305586.391    20305589.281
  20305589.625          47.100          54.100
 111227291.132 8  86670645.777 8  21165843.414    21165846.090
  21165846.145          48.100          48.100
 118554709.112 7  92380391.88045  22560223.938
  22560225.328          44.300          34.100
 122394112.637 7  95372073.12145  23290813.563
  23290815.473          44.700          30.400
 127149407.642 6  99077470.39244  24195725.766
  24195725.980          41.100          28.300
 109260705.765 7  85138240.83046  20791612.977
  20791614.805          47.000          38.600
 112517692.299 7  87676155.795 8  21411398.844    21411404.523
  21411404.086          47.900          48.400
 21  2  1  0 13 30.0000000  0 13G01G03G06G07G08G13G14G17G19G21G22G28
                                G30
 109230202.920 7  85114522.628 8  20785811.391    20785816.387
  20785816.871          47.600          48.300
 129725297.507 5 101084669.082 6  24685899.250    24685908.445
  24685908.613          33.700          38.300
 130122954.320 6 101394543.793 5  24761575.781    24761581.973
  24761582.965          36.400          32.600
 122333772.756 7  95325039.686 6  23279338.414    23279340.871
  23279341.203          43.900          40.200
 131440801.826 6 102421505.958 5  25012355.281    25012360.848
  25012357.953          38.900          33.500
 127339090.223 6  99225362.47443  24231841.367
  24231843.895          38.600          21.100
 106700308.990 7  83143126.303 8  20304385.563    20304388.625
  20304389.020          47.500          53.900
 111210149.511 8  86657288.674 7  21162581.852    21162584.664
  21162585.113          48.700          47.800
 118514922.524 7  92349389.36445  22552653.305
  22552655.113          44.600          33.600
 122435078.802 7  95403994.79144  23298609.789
  23298611.156          43.700          29.600
 127125978.743 7  99059214.10044  24191267.109
  24191268.668          42.200          28.400
 109248120.087 7  85128433.79746  20789217.797
  20789219.813          46.800          38.600
 112554065.993 7  87704498.938 7  21418320.617    21418326.035
  21418325.645          47.900          47.600
 21  2  1  0 13 45.0000000  0 13G01G03G06G07G08G13G14G17G19G21G22G28
                                G30
 109250096.103 7  85130023.823 8  20789596.367    20789602.051
  20789602.586          47.300          49.100
 129684461.078 5 101052848.476 6  24678130.313    24678137.383
  24678137.266          35.900          39.100
 130065027.938 5 101349406.349 5  24750551.094    24750557.957
  24750559.504          34.400          32.300
 122388881.210 7  95367981.352 6  23289824.758    23289827.668
  23289828.230          43.000          41.500
 131487038.487 6 102457534.524 5  25021153.594    25021159.621
  25021156.824          38.000          32.800
 127368047.021 6  99247926.25143  24237351.711
  24237354.148          38.700          20.400
 106694084.521 8  83138276.072 9  20303201.641    20303204.043
  20303204.227          48.300          54.100
 111193081.103 7  86643988.611 8  21159333.625    21159336.449
  21159336.797          47.500          48.000
 118475196.488 7  92318433.99645  22545094.023
  22545094.598          44.600          32.900
 122476112.455 7  95435969.07744  23306417.664
  23306419.910          43.500          29.400
 127102638.302 7  99041026.78344  24186825.898
  24186826.563          42.000          28.300
 109235588.369 7  85118668.81446  20786833.156
  20786834.969          46.400          38.900
 112590550.683 7  87732928.552 7  21425263.641    21425268.973
  21425268.453          46.300          47.800
 21  2  1  0 14  0.0000000  0 13G01G03G06G07G08G13G14G17G19G21G22G28
                                G30
 109270143.173 7  85145644.914 8  20793411.211    20793416.598
  20793417.020          46.800          48.600
 129643651.042 5 101021048.470 6  24670364.680    24670371.539
  24670371.398          34.600          39.900
 130007111.786 5 101304276.997 5  24739531.078    24739538.301
  24739538.500          34.200          35.000
 122444031.999 7  95410955.983 6  23300319.461    23300323.320
  23300323.180          42.100          40.600
 131533263.259 6 102493553.715 6  25029949.344    25029955.047
  25029955.391          37.700          37.200
 127397089.473 6  99270556.68643  24242878.445
  24242881.129          38.900          21.500
 106687944.402 8  83133491.562 8  20302032.906    20302035.871
  20302036.156          48.500          53.200
 111176085.884 8  86630745.583 7  21156100.195    21156102.168
  21156102.023          48.600          47.600
 118435530.977 7  92287525.83045  22537544.688
  22537546.039          45.200          33.000
 122517213.409 7  95467995.79044  23314238.953
  23314240.879          43.900          29.600
 127079386.580 6  99022908.55844  24182401.234
  24182401.344          41.300          27.300
 109223110.523 7  85108945.81846  20784458.688
  20784460.082          47.500          40.100
 112627145.962 7  87761444.369 8  21432227.227    21432232.965
  21432232.766          47.100          48.000
 21  2  1  0 14 15.0000000  0 13G01G03G06G07G08G13G14G17G19G21G22G28
                                G30
 109290343.817 7  85161385.683 8  20797255.281    20797260.707
  20797261.055          47.200          49.800
 129602867.817 6 100989269.344 6  24662604.156    24662610.844
  24662610.230          38.200          40.100
 129949206.234 5 101259155.829 6  24728511.258    24728519.453
  24728519.477          34.600          38.800
 122499224.674 6  95453963.262 6  23310821.781    23310826.348
  23310826.359          41.800          40.500
 131579476.026 5 102529563.718 6  25038742.750    25038749.629
  25038751.156          33.700          38.800
 127426216.986 6  99293253.44143  24248422.070
  24248423.309          37.300          20.600
 106681888.726 8  83128772.850 8  20300880.430    20300883.156
  20300883.391          49.200          53.600
 111159163.344 8  86617559.231 7  21152879.445    21152881.625
  21152881.887          49.200          47.700
 118395926.026 7  92256664.82445  22530009.031
  22530010.352          44.800          34.400
 122558381.308 7  95500074.65144  23322073.359
  23322075.051          43.500          29.600
 127056223.783 6  99004859.62444  24177993.648
  24177994.301          41.200          27.000
 109210686.510 8  85099264.77346  20782094.688
  20782095.918          48.000          40.500
 112663851.537 7  87790046.107 8  21439212.414    21439218.238
  21439217.707          47.400          48.000
 21  2  1  0 14 30.0000000  0 13G01G03G06G07G08G13G14G17G19G21G22G28
                                G30
 109310697.983 7  85177246.079 8  20801128.945    20801134.398
  20801134.688          46.800          48.600
 129562111.915 6 100957511.525 6  24654848.375    24654855.637
  24654854.289          38.400          39.000
 129891311.504 6 101214043.109 6  24717494.039    24717502.980
  24717502.590          36.400          41.000
 122554459.025 6  95497002.965 6  23321333.203    23321336.844
  23321337.250          38.400          41.800
 131625676.717 5 102565564.235 6  25047534.961    25047541.316
  25047542.777          32.900          38.600
 127455429.572 6  99316016.52143  24253980.289
  24253982.066          38.400          21.100
 106675917.799 8  83124120.177 8  20299744.211    20299747.195
  20299747.402          48.800          53.800
 111142313.582 8  86604429.535 7  21149673.070    21149675.594
  21149676.141          48.800          47.800
 118356381.839 7  92225851.19145  22522483.672
  22522485.355          45.700          34.400
 122599615.843 7  95532205.45345  23329920.383
  23329921.984          43.000          30.400
 127033150.551 6  98986880.51044  24173602.125
  24173603.668          41.700          25.800
 109198316.696 8  85089625.96146  20779740.445
  20779742.348          48.100          40.800
 112700667.191 7  87818733.616 7  21446218.438    21446223.379
  21446223.180          47.900          47.800
 21  2  1  0 14 45.0000000  0 13G01G03G06G07G08G13G14G17G19G21G22G28
                                G30
 109331205.419 7  85193225.902 8  20805031.008    20805036.633
  20805037.074          47.100          48.800
 129521383.607 6 100925775.192 6  24647098.516    24647105.277
  24647104.832          39.300          38.700
 129833428.092 6 101168939.186 6  24706480.250    24706487.492
  24706486.973          37.900          40.500
 122609734.600 7  95540074.823 6  23331851.570    23331855.656
  23331856.277          42.300          41.900
 131671865.077 5 102601555.116 5  25056323.102    25056330.691
  25056330.520          31.000          35.200
 127484726.640 6  99338845.37543  24259555.219
  24259557.270          39.300          21.100
 106670031.671 8  83119533.577 8  20298624.070    20298626.953
  20298627.125          48.100          53.700
 111125536.544 8  86591356.524 8  21146480.406    21146482.910
  21146483.145          48.400          48.400
 118316898.308 7  92195084.80245  22514970.180
  22514972.008          45.700          34.600
 122640916.650 7  95564387.89844  23337780.250
  23337781.227          42.400          29.900
 127010166.979 6  98968971.24044  24169228.625
  24169229.445          40.800          26.700
 109186001.142 7  85080029.43246  20777397.031
  20777398.746          47.700          40.200
 112737592.675 8  87847506.725 8  21453244.578    21453250.207
  21453250.160          48.100          48.100
 21  2  1  0 15  0.0000000  0 13G01G03G06G07G08G13G14G17G19G21G22G28
                                G30
 109351865.709 7  85209324.823 8  20808963.086    20808967.875
  20808968.367          47.300          48.800
 129480683.204 6 100894060.624 6  24639353.398    24639359.738
  24639359.758          38.800          37.900
 129775556.041 6 101123844.113 6  24695468.188    24695474.836
  24695474.168          38.600          40.300
 122665050.914 6  95583178.480 6  23342377.266    23342381.254
  23342382.352          40.000          40.200
 131718041.042 5 102637536.348 6  25065111.758    25065117.785
  25065117.371          34.300          38.600
 127514107.858 6  99361739.84043  24265146.383
  24265149.395          40.600          21.300
 106664230.371 8  83115013.085 8  20297520.148    20297523.109
  20297523.297          48.900          53.100
 111108832.184 8  86578340.139 8  21143301.781    21143303.898
  21143304.238          48.100          48.400
 118277475.510 7  92164365.76245  22507468.609
  22507469.555          45.500          34.400
 122682283.437 7  95596621.77844  23345650.531
  23345652.762          42.900          29.900
 126987273.093 6  98951131.88644  24164872.719
  24164872.664          40.400          26.300
 109173739.893 7  85070475.22346  20775063.492
  20775065.992          47.000          40.600
 112774627.519 8  87876365.036 8  21460292.492    21460297.977
  21460297.422          48.200          48.100
 21  2  1  0 15 15.0000000  0 13G01G03G06G07G08G13G14G17G19G21G22G28
                                G30
 109372678.651 7  85225542.694 8  20812923.703    20812928.449
  20812928.891          47.200          48.100
 129440011.121 6 100862368.117 6  24631613.336    24631619.977
  24631619.582          38.800          39.500
 129717695.628 6 101078758.152 6  24684457.219    24684464.387
  24684463.926          38.700          40.200
 122720407.711 7  95626313.585 6  23352913.102    23352915.254
  23352915.672          42.300          40.100
 131764204.419 6 102673507.807 6  25073895.602    25073902.090
  25073902.777          36.300          37.600
 127543572.944 6  99384699.60443  24270753.813
  24270756.770          40.500          22.500
 106658513.991 8  83110558.764 8  20296432.375    20296435.531
  20296435.461          48.500          52.800
 111092200.403 8  86565380.314 7  21140137.117    21140139.176
  21140139.281          48.300          47.300
 118238113.587 7  92133694.12245  22499978.516
  22499979.688          45.000          35.300
 122723715.852 7  95628906.74644  23353536.195
  23353537.746          42.200          29.600
 126964469.240 6  98933362.67043  24160532.391
  24160533.766          38.900          23.400
 109161533.082 7  85060963.41946  20772740.461
  20772742.855          47.200          40.800
 112811771.428 7  87905308.349 8  21467361.070    21467366.543
  21467366.016          47.800          48.600
 21  2  1  0 15 30.0000000  0 13G01G03G06G07G08G13G14G17G19G21G22G28
                                G30
 109393644.249 7  85241879.537 8  20816912.719    20816917.813
  20816918.293          47.300          49.000
 129399367.943 6 100830698.098 6  24623879.391    24623885.328
  24623885.805          38.200          38.900
 129659847.389 6 101033681.666 6  24673448.672    24673456.492
  24673455.750          38.400          40.400
 122775804.839 7  95669480.177 6  23363453.914    23363457.469
  23363457.676          42.300          40.500
 131810355.488 6 102709469.685 6  25082678.242    25082684.094
  25082684.902          36.700          37.800
 127573121.667 6  99407724.59343  24276376.398
  24276379.281          39.500          22.200
 106652882.924 8  83106170.913 8  20295360.891    20295363.637
  20295363.758          48.100          53.700
 111075641.344 8  86552477.159 8  21136985.719    21136987.879
  21136988.129          49.000          48.100
 118198812.630 7  92103070.01345  22492500.070
  22492500.977          46.800          35.000
 122765213.729 7  95661242.79245  23361432.336
  23361434.824          43.200          30.400
 126941755.999 6  98915663.99943  24156211.172
  24156210.902          39.000          23.200
 109149381.006 7  85051494.26946  20770427.930
  20770430.367          46.600          40.500
 112849024.384 7  87934336.623 8  21474449.578    21474454.988
  21474454.586          47.500          48.000
 21  2  1  0 15 45.0000000  0 13G01G03G06G07G08G13G14G17G19G21G22G28
                                G30
 109414761.880 7  85258334.849 8  20820931.211    20820936.500
  20820936.801          47.300          48.500
 129358753.792 6 100799050.644 6  24616151.414    24616155.680
  24616157.133          36.800          37.200
 129602011.354 6 100988614.633 6  24662443.172    24662450.391
  24662449.750          39.000          37.000
 122831241.539 7  95712677.600 6  23374003.594    23374006.887
  23374007.391          43.800          38.900
 131856493.830 6 102745421.680 6  25091457.836    25091464.566
  25091465.340          37.400          37.900
 127602753.262 6  99430814.10243  24282015.141
  24282018.125          39.600          21.700
 106647336.929 7  83101849.367 8  20294305.422    20294308.266
  20294308.383          46.800          53.000
 111059154.575 8  86539630.328 8  21133848.195    21133850.859
  21133851.266          48.000          48.300
 118159572.468 7  92072493.26245  22485032.961
  22485033.754          44.700          34.500
 122806776.581 7  95693629.43245  23369342.172
  23369344.145          45.700          30.400
 126919133.431 6  98898036.06944  24151905.391
  24151906.633          39.600          24.600
 109137283.517 7  85042067.64546  20768125.672
  20768128.137          46.400          39.900
 112886385.724 8  87963449.341 8  21481559.055    21481564.621
  21481564.266          48.400          48.400
 21  2  1  0 16  0.0000000  0 13G01G03G06G07G08G13G14G17G19G21G22G28
                                G30
 109436031.630 7  85274908.681 8  20824979.227    20824983.781
  20824984.418          47.500          48.300
 129318169.250 6 100767426.364 5  24608427.820    24608432.883
  24608433.242          38.300          34.700
 129544188.004 6 100943557.504 5  24651440.156    24651447.141
  24651446.340          37.400          32.200
 122886717.795 7  95755905.870 6  23384560.273    23384562.867
  23384563.645          43.600          39.500
 131902619.583 6 102781363.851 6  25100235.984    25100242.695
  25100243.121          38.300          39.000
 127632467.819 6  99453968.31443  24287669.711
  24287672.203          40.500          20.600
 106641876.432 7  83097594.441 8  20293266.695    20293269.316
  20293269.563          47.400          53.700
 111042740.366 7  86526840.036 8  21130724.797    21130727.352
  21130727.895          47.600          48.900
 118120393.460 7  92041964.17345  22477577.195
  22477578.125          45.100          34.800
 122848404.224 7  95726066.56745  23377263.063
  23377265.684          44.600          30.600
 126896601.982 6  98880479.11444  24147618.180
  24147619.203          38.300          24.000
 109125240.970 7  85032683.83646  20765834.047
  20765836.582          46.100          39.900
 112923855.415 7  87992646.476 8  21488689.141    21488695.047
  21488694.617          46.500          48.500
 21  2  1  0 16 15.0000000  0 13G01G03G06G07G08G13G14G17G19G21G22G28
                                G30
 109457453.068 7  85291600.709 8  20829055.891    20829060.332
  20829060.668          47.700          48.100
 129277614.620 6 100735825.440 5  24600710.492    24600715.992
  24600715.887          38.400          35.700
 129486377.520 5 100898510.351 5  24640438.523    24640443.555
  24640444.477          34.700          31.900
 122942233.073 7  95799164.564 5  23395124.156    23395126.492
  23395126.559          43.200          35.200
 131948732.367 6 102817295.905 6  25109009.484    25109017.039
  25109018.227          37.600          38.900
 127662264.805 6  99477186.73743  24293339.516
  24293342.262          39.900          22.200
 106636501.402 8  83093406.109 9  20292243.344    20292246.531
  20292246.652          48.100          54.100
 111026398.580 8  86514106.174 7  21127615.477    21127617.496
  21127617.477          48.500          47.900
 118081275.507 7  92011482.65945  22470133.078
  22470134.254          45.800          33.800
 122890096.286 7  95758553.88944  23385197.547
  23385198.344          45.000          28.600
 126874161.814 6  98862993.25843  24143348.688
  24143348.836          38.700          22.900
 109113253.334 7  85023342.80946  20763552.813
  20763555.121          46.600          40.600
 112961433.015 7  88021927.749 8  21495840.039    21495845.301
  21495845.117          47.300          48.900
 21  2  1  0 16 30.0000000  0 13G01G03G06G07G08G13G14G17G19G21G22G28
                                G30
 109479026.083 8  85308410.860 8  20833161.023    20833165.879
  20833165.949          48.400          48.200
 129237090.363 6 100704248.055 5  24592998.078    24593004.672
  24593004.641          36.000          34.600
 129428580.196 5 100853473.455 5  24629439.453    24629446.395
  24629446.289          32.400          31.800
 122997787.229 7  95842453.525 6  23405696.414    23405699.016
  23405698.313          42.500          36.500
 131994832.511 5 102853218.107 6  25117783.039    25117788.898
  25117789.707          34.700          37.100
 127692143.738 6  99500469.03443  24299025.516
  24299028.016          38.900          21.500
 106631212.100 8  83089284.580 9  20291236.750    20291240.094
  20291240.250          48.000          54.000
 111010129.193 8  86501428.745 7  21124519.375    21124521.152
  21124520.797          48.600          47.400
 118042218.749 7  91981048.83945  22462700.773
  22462701.457          44.300          33.900
 122931852.592 7  95791091.28644  23393142.656
  23393143.922          45.000          29.100
 126851813.329 6  98845578.82443  24139096.961
  24139095.371          39.100          21.300
 109101320.947 7  85014044.85446  20761282.594
  20761284.457          46.900          40.100
 112999118.407 7  88051292.965 8  21503011.594    21503016.641
  21503016.477          47.000          48.400
 21  2  1  0 16 45.0000000  0 13G01G03G06G07G08G13G14G17G19G21G22G28
                                G30
 109500750.426 7  85325338.945 8  20837295.016    20837299.719
  20837299.855          47.800          48.900
 129196596.882 5 100672694.704 6  24585292.922    24585298.906
  24585298.277          35.500          36.400
 129370796.541 5 100808447.278 5  24618442.914    24618450.996
  24618450.094          34.100          33.500
 123053379.793 6  95885772.436 6  23416274.805    23416277.840
  23416277.871          41.700          38.300
 132040919.749 5 102889130.260 5  25126552.766    25126558.801
  25126557.996          35.100          35.300
 127722104.408 6  99523815.00343  24304727.258
  24304730.008          39.200          21.800
 106626008.660 8  83085229.957 9  20290246.398    20290249.859
  20290249.902          48.400          54.000
 110993931.959 8  86488807.544 7  21121436.633    21121439.078
  21121438.668          48.600          46.800
 118003223.289 7  91950662.76245  22455280.141
  22455281.160          44.700          33.600
 122973672.905 7  95823678.52544  23401100.750
  23401101.453          45.600          28.800
 126829556.827 6  98828236.16043  24134860.648
  24134858.539          38.800          21.700
 109089443.845 8  85004789.97846  20759022.172
  20759024.199          48.000          41.300
 113036911.234 7  88080741.937 7  21510203.711    21510208.734
  21510208.629          47.500          47.800
 21  2  1  0 17  0.0000000  0 13G01G03G06G07G08G13G14G17G19G21G22G28
                                G30
 109522625.877 7  85342384.762 8  20841457.617    20841462.910
  20841463.223          46.700          48.800
 129156134.646 5 100641165.696 6  24577592.563    24577599.898
  24577599.461          33.900          37.300
 129313026.794 6 100763431.946 6  24607450.445    24607457.676
  24607456.852          36.600          37.200
 123109010.426 6  95929120.976 6  23426861.102    23426864.320
  23426864.156          41.900          40.100
 132086994.022 6 102925032.242 5  25135320.516    25135326.855
  25135326.426          36.300          35.800
 127752146.556 6  99547224.45743  24310443.977
  24310446.742          38.700          22.800
 106620891.240 8  83081242.359 8  20289273.156    20289275.785
  20289275.820          48.400          53.800
 110977806.886 8  86476242.549 8  21118368.516    21118370.840
  21118371.391          48.800          48.500
 117964289.269 7  91920324.59345  22447871.555
  22447872.344          45.400          34.300
 123015556.870 7  95856315.40244  23409071.125
  23409072.141          45.000          28.500
 126807392.628 6  98810965.42343  24130642.297
  24130641.137          40.800          22.300
 109077622.289 8  84995578.38346  20756772.828
  20756774.848          48.500          41.200
 113074811.204 7  88110274.356 7  21517415.180    21517421.117
  21517420.859          45.600          47.900
 21  2  1  0 17 15.0000000  0 13G01G03G06G07G08G13G14G17G19G21G22G28
                                G30
 109544652.367 7  85359548.249 8  20845648.977    20845654.590
  20845655.031          46.400          49.200
 129115704.045 5 100609661.351 6  24569898.234    24569906.508
  24569906.332          35.700          38.500
 129255271.402 6 100718427.825 6  24596460.086    24596467.883
  24596466.758          38.100          39.000
 123164679.013 6  95972499.079 6  23437453.922    23437457.684
  23437457.836          40.500          40.200
 132133055.361 5 102960924.168 6  25144085.469    25144092.848
  25144092.969          33.900          38.400
 127782269.686 6  99570697.03643  24316176.180
  24316178.816          39.100          20.900
 106615860.046 8  83077321.960 8  20288315.328    20288318.516
  20288318.691          48.200          53.500
 110961754.128 8  86463733.893 8  21115314.188    21115316.270
  21115316.930          48.100          49.000
 117925416.787 7  91890034.34545  22440473.781
  22440474.559          45.300          34.400
 123057504.331 7  95889001.73644  23417052.906
  23417054.449          42.900          29.700
 126785321.243 6  98793766.95343  24126441.008
  24126441.891          40.500          23.500
 109065856.345 8  84986410.12246  20754533.859
  20754535.891          49.200          41.700
 113112818.224 7  88139890.223 7  21524648.211    21524653.055
  21524652.750          46.900          47.300
 21  2  1  0 17 30.0000000  0 13G01G03G06G07G08G13G14G17G19G21G22G28
                                G30
 109566829.226 7  85376828.906 8  20849868.734    20849874.617
  20849874.961          47.600          49.000
 129075305.373 5 100578181.827 6  24562212.883    24562219.023
  24562219.258          35.700          37.100
 129197530.329 6 100673434.805 6  24585473.219    24585480.242
  24585479.605          38.900          41.300
 123220384.886 6  96015906.189 6  23448054.297    23448058.637
  23448058.832          40.500          39.600
 132179103.498 5 102996805.769 5  25152846.359    25152854.965
  25152855.258          30.300          35.500
 127812473.327 6  99594232.31243  24321923.695
  24321925.922          40.100          22.600
 106610914.921 8  83073468.602 8  20287374.719    20287377.461
  20287377.676          48.200          53.000
 110945773.211 8  86451281.250 8  21112272.383    21112275.406
  21112275.707          48.700          48.500
 117886605.554 7  91859791.82045  22433088.398
  22433089.184          45.500          33.700
 123099514.606 7  95921737.01644  23425048.898
  23425048.988          45.200          29.400
 126763342.453 6  98776640.61944  24122260.398
  24122260.262          38.800          24.700
 109054145.917 8  84977285.11446  20752305.680
  20752307.191          50.200          41.600
 113150931.594 7  88169588.941 8  21531900.719    21531905.969
  21531905.793          47.500          48.200
 21  2  1  0 17 45.0000000  0 13G01G03G06G07G08G13G14G17G19G21G22G28
                                G30
 109589156.514 7  85394226.780 8  20854117.398    20854123.227
  20854123.379          47.400          48.500
 129034939.096 6 100546727.625 6  24554530.938    24554538.012
  24554537.910          36.100          40.200
 129139804.134 6 100628453.355 6  24574487.930    24574495.242
  24574494.688          41.100          41.200
 123276127.846 6  96059342.246 6  23458662.531    23458665.941
  23458665.922          41.800          41.300
 132225138.456 5 103032677.160 5  25161608.313    25161614.707
  25161614.285          33.700          35.000
 127842757.345 6  99617830.27943  24327686.156
  24327689.734          39.400          22.300
 106606056.191 8  83069682.567 8  20286449.695    20286452.980
  20286452.938          48.200          53.000
 110929864.374 8  86438884.769 8  21109245.078    21109247.621
  21109247.863          48.200          48.300
 117847855.923 7  91829597.31245  22425714.023
  22425715.441          45.800          34.800
 123141587.724 7  95954521.28644  23433054.594
  23433054.793          44.900          29.900
 126741456.954 6  98759586.98943  24118095.180
  24118095.148          40.100          22.900
 109042491.529 8  84968203.78647  20750087.844
  20750089.645          49.000          42.700
 113189151.289 8  88199370.526 8  21539173.766    21539178.957
  21539178.898          48.200          48.100
 21  2  1  0 18  0.0000000  0 13G01G03G06G07G08G13G14G17G19G21G22G28
                                G30
 109611633.985 7  85411741.699 7  20858395.133    20858400.063
  20858399.898          47.500          47.900
 128994605.675 5 100515298.968 6  24546855.586    24546862.559
  24546862.836          34.700          40.200
 129082093.038 6 100583483.698 7  24563505.852    24563512.785
  24563512.484          40.200          42.200
 123331907.613 6  96102806.977 7  23469276.344    23469280.316
  23469280.625          40.400          42.400
 132271160.089 5 103068538.230 5  25170366.125    25170371.996
  25170371.043          35.200          33.600
 127873121.398 6  99641490.60243  24333464.344
  24333467.957          41.100          22.900
 106601284.044 7  83065964.000 8  20285541.719    20285545.047
  20285545.094          47.600          52.900
 110914027.556 7  86426544.394 8  21106231.914    21106234.371
  21106234.191          47.600          49.000
 117809168.015 7  91799450.90145  22418352.633
  22418353.641          44.900          35.000
 123183723.380 7  95987354.25044  23441072.609
  23441073.141          44.900          29.800
 126719664.942 6  98742606.20043  24113947.352
  24113948.586          40.900          23.300
 109030893.258 8  84959166.17546  20747880.656
  20747882.543          49.900          41.400
 113227477.036 7  88229234.723 8  21546466.906    21546472.402
  21546471.996          47.600          48.100
 21  2  1  0 18 15.0000000  0 13G01G03G06G07G08G13G14G17G19G21G22G28
                                G30
 109634261.245 7  85429373.337 7  20862701.180    20862705.664
  20862705.219          47.500          47.400
 128954305.278 6 100483896.116 6  24539186.359    24539193.559
  24539193.609          37.300          40.500
 129024397.267 6 100538525.985 6  24552526.563    24552533.805
  24552533.371          38.200          41.400
 123387723.615 6  96146299.926 6  23479898.352    23479901.621
  23479901.969          41.500          41.600
 132317168.272 6 103104388.768 5  25179120.695    25179127.500
  25179125.922          37.300          34.300
 127903564.835 6  99665212.74443  24339257.906
  24339260.664          39.400          20.900
 106596598.434 7  83062312.876 8  20284650.188    20284653.000
  20284653.164          47.300          53.800
 110898262.601 8  86414260.022 8  21103231.586    21103234.363
  21103234.402          49.100          48.800
 117770541.858 7  91769352.59045  22411002.172
  22411003.234          45.200          34.900
 123225921.143 7  96020235.61945  23449101.719
  23449103.207          44.900          30.200
 126697966.598 7  98725698.41943  24109818.953
  24109817.941          42.000          22.800
 109019351.072 8  84950172.26846  20745684.695
  20745686.172          48.800          41.100
 113265908.358 7  88259181.225 7  21553780.508    21553785.750
  21553785.332          46.800          47.600
 21  2  1  0 18 30.0000000  0 13G01G03G06G07G08G13G14G17G19G21G22G28
                                G30
 109657038.040 7  85447121.511 8  20867035.133    20867039.793
  20867039.637          47.200          48.000
 128914038.432 6 100452519.412 6  24531523.828    24531531.371
  24531531.199          36.500          41.100
 128966717.148 6 100493580.514 6  24541549.789    24541557.641
  24541557.578          36.900          41.500
 123443575.641 7  96189820.953 6  23490527.336    23490530.430
  23490530.434          44.100          41.900
 132363163.146 5 103140228.847 5  25187874.414    25187879.387
  25187877.680          35.400          33.800
 127934087.418 6  99688996.56243  24345065.391
  24345068.805          39.200          21.800
 106591999.562 7  83058729.336 9  20283775.242    20283778.371
  20283778.391          47.000          54.100
 110882569.450 8  86402031.579 7  21100245.273    21100248.105
  21100247.801          48.000          47.700
 117731977.464 7  91739302.42645  22403663.852
  22403664.656          45.800          35.100
 123268180.752 7  96053165.16945  23457143.922
  23457145.168          44.400          30.700
 126676362.220 6  98708863.87844  24105707.523
  24105707.176          41.400          24.200
 109007865.043 8  84941222.11246  20743498.750
  20743500.488          48.800          40.700
 113304445.013 7  88289209.753 8  21561113.375    21561118.629
  21561118.348          47.700          48.000
 21  2  1  0 18 45.0000000  0 13G01G03G06G07G08G13G14G17G19G21G22G28
                                G30
 109679964.093 7  85464985.971 7  20871397.930    20871402.453
  20871402.844          47.800          47.400
 128873805.490 6 100421169.062 6  24523867.961    24523874.918
  24523875.145          37.200          41.700
 128909052.901 6 100448647.379 7  24530576.727    24530584.535
  24530584.262          37.500          42.300
 123499463.203 7  96233369.652 6  23501162.039    23501165.492
  23501165.410          44.500          40.500
 132409144.314 5 103176058.242 5  25196623.992    25196630.004
  25196627.676          33.300          34.700
 127964688.771 6  99712841.75843  24350889.219
  24350892.020          40.200          21.300
 106587487.425 7  83055213.400 8  20282916.336    20282919.785
  20282919.867          46.300          53.400
 110866947.969 8  86389859.011 7  21097272.430    21097274.781
  21097274.516          48.100          47.000
 117693474.714 7  91709300.29045  22396337.297
  22396338.266          45.500          35.200
 123310501.802 7  96086142.62844  23465196.586
  23465199.234          43.500          29.400
 126654852.112 6  98692102.78544  24101614.273
  24101614.844          41.700          25.600
 108996435.246 8  84932315.77046  20741323.477
  20741325.547          48.400          40.400
 113343086.611 7  88319320.100 8  21568466.992    21568471.801
  21568471.660          47.600          48.300
 21  2  1  0 19  0.0000000  0 13G01G03G06G07G08G13G14G17G19G21G22G28
                                G30
 109703039.387 7  85482966.728 7  20875788.531    20875794.172
  20875794.574          47.200          47.500
 128833607.036 6 100389845.624 6  24516218.602    24516225.184
  24516225.750          39.900          41.100
 128851405.049 5 100403727.063 6  24519606.609    24519613.574
  24519613.988          35.100          41.000
 123555386.206 7  96276945.987 6  23511803.766    23511806.996
  23511807.254          44.600          40.300
 132455112.228 5 103211877.359 5  25205371.508    25205376.961
  25205376.035          32.800          35.800
 127995368.858 6  99736748.34743  24356727.430
  24356730.527          39.800          21.700
 106583062.465 7  83051765.406 9  20282074.008    20282077.441
  20282077.719          46.700          54.200
 110851398.279 8  86377742.367 8  21094314.266    21094315.992
  21094316.105          49.300          48.100
 117655033.983 7  91679346.47545  22389022.258
  22389023.117          45.400          35.600
 123352884.267 7  96119167.91644  23473261.977
  23473263.754          43.500          28.000
 126633436.834 6  98675415.54144  24097539.156
  24097540.809          41.400          25.900
 108985062.241 7  84923453.68646  20739159.500
  20739161.527          47.300          40.100
 113381833.169 7  88349512.225 8  21575839.898    21575845.672
  21575845.574          47.200          48.300
 21  2  1  0 19 15.0000000  0 13G01G03G06G07G08G13G14G17G19G21G22G28
                                G30
 109726263.499 7  85501063.442 8  20880207.695    20880213.344
  20880214.051          47.000          48.900
 128793443.325 6 100358549.236 6  24508574.805    24508582.887
  24508582.645          37.700          40.800
 128793773.822 5 100358819.647 6  24508640.555    24508647.246
  24508646.988          35.600          39.200
 123611344.107 7  96320549.545 6  23522452.391    23522455.855
  23522456.141          43.900          40.000
 132501066.208 5 103247685.652 6  25214117.094    25214121.598
  25214121.258          34.800          36.600
 128026126.920 6  99760715.65443  24362579.672
  24362583.836          38.700          21.100
 106578724.602 7  83048385.263 8  20281248.203    20281251.793
  20281252.020          47.300          53.700
 110835920.188 7  86365681.534 8  21091368.258    21091371.035
  21091371.293          47.700          49.000
 117616655.099 7  91649440.86946  22381718.977
  22381720.117          46.800          36.300
 123395327.546 7  96152240.61744  23481338.563
  23481340.152          43.600          28.800
 126612116.410 7  98658802.18644  24093482.531
  24093484.117          42.300          26.400
 108973745.810 7  84914635.68546  20737005.953
  20737007.652          47.500          39.500
 113420684.111 7  88379785.673 7  21583232.695    21583238.180
  21583238.020          47.300          47.200
 21  2  1  0 19 30.0000000  0 13G01G03G06G07G08G13G14G17G19G21G22G28
                                G30
 109749636.085 7  85519275.828 8  20884655.789    20884661.645
  20884662.258          47.600          49.500
 128753314.597 6 100327280.153 6  24500938.359    24500946.227
  24500946.105          37.700          40.600
 128736159.244 6 100313925.284 6  24497676.344    24497682.984
  24497682.977          38.100          37.000
 123667336.603 7  96364180.082 6  23533107.664    23533110.176
  23533110.797          43.700          39.100
 132547006.251 5 103283483.074 5  25222858.875    25222864.246
  25222863.129          34.300          35.500
 128056962.691 6  99784743.49543  24368447.984
  24368451.613          39.000          20.400
 106574473.896 7  83045073.026 9  20280440.086    20280442.922
  20280443.168          47.700          54.000
 110820513.371 7  86353676.231 8  21088436.016    21088439.012
  21088439.496          47.600          48.300
 117578338.094 7  91619583.48645  22374427.305
  22374428.539          45.800          35.600
 123437831.487 7  96185360.55044  23489426.289
  23489428.648          43.600          28.600
 126590890.989 7  98642262.92244  24089442.781
  24089444.305          42.700          26.600
 108962486.129 8  84905861.91146  20734863.336
  20734865.418          48.000          39.000
 113459639.130 7  88410140.226 7  21590645.594    21590651.367
  21590651.281          47.500          47.800
 21  2  1  0 19 45.0000000  0 13G01G03G06G07G08G13G14G17G19G21G22G28
                                G30
 109773157.155 7  85537603.909 8  20889131.930    20889137.828
  20889138.438          47.000          48.900
 128713221.593 6 100296038.863 7  24493309.719    24493316.961
  24493316.555          38.900          42.400
 128678562.121 6 100269044.384 6  24486716.867    24486722.496
  24486722.199          39.200          37.100
 123723363.522 6  96407837.432 6  23543768.367    23543771.250
  23543771.945          41.400          37.700
 132592932.665 5 103319269.869 5  25231597.086    25231604.133
  25231601.469          33.300          33.500
 128087876.119 6  99808831.89643  24374331.422
  24374333.844          38.100          19.600
 106570310.753 8  83041829.010 8  20279647.625    20279650.742
  20279650.938          48.700          53.900
 110805178.206 7  86341726.737 8  21085518.172    21085520.648
  21085520.977          47.600          49.400
 117540083.355 7  91589774.61146  22367147.727
  22367149.230          46.300          36.400
 123480396.011 7  96218527.69844  23497526.344
  23497528.172          43.800          29.800
 126569761.186 7  98625798.17944  24085422.977
  24085423.449          42.300          27.300
 108951283.603 7  84897132.65846  20732731.375
  20732733.262          47.300          39.700
 113498698.130 7  88440575.810 8  21598078.570    21598083.770
  21598083.902          47.500          48.700
 21  2  1  0 20  0.0000000  0 13G01G03G06G07G08G13G14G17G19G21G22G28
                                G30
 109796826.074 7  85556047.214 8  20893636.180    20893641.504
  20893642.102          47.700          49.100
 128673164.313 6 100264825.424 6  24485686.961    24485693.867
  24485693.863          38.300          40.900
 128620982.260 6 100224176.919 6  24475758.961    24475765.594
  24475764.824          38.700          37.100
 123779424.191 6  96451521.023 5  23554436.344    23554440.340
  23554439.551          40.300          33.600
 132638845.043 5 103355045.780 5  25240335.063    25240340.504
  25240338.570          35.000          34.900
 128118866.280 6  99832980.06143  24380228.391
  24380230.957          39.000          20.100
 106566234.912 7  83038653.015 8  20278872.383    20278874.977
  20278875.262          47.000          53.700
 110789914.412 8  86329832.883 7  21082614.000    21082615.684
  21082615.520          48.300          47.800
 117501890.525 7  91560013.97245  22359879.938
  22359881.035          46.500          35.100
 123523020.330 7  96251741.45644  23505637.813
  23505640.164          43.200          29.200
 126548726.974 7  98609407.91844  24081419.820
  24081420.656          42.600          26.900
 108940137.911 7  84888447.69946  20730610.977
  20730612.113          47.600          39.300
 113537860.485 7  88471091.926 8  21605530.781    21605536.488
  21605536.398          47.800          48.000
 21  2  1  0 20 15.0000000  0 13G01G03G06G07G08G13G14G17G19G21G22G28
                                G30
 109820642.877 8  85574605.767 8  20898168.141    20898173.266
  20898173.691          48.000          48.800
 128633143.469 6 100233640.395 6  24478071.984    24478078.320
  24478078.160          40.700          41.100
 128563420.275 6 100179323.441 6  24464805.789    24464812.094
  24464811.262          39.200          37.200
 123835518.615 6  96495231.002 6  23565111.070    23565113.875
  23565113.824          40.200          36.900
 132684743.504 6 103390810.761 5  25249068.695    25249074.707
  25249074.262          37.900          35.900
 128149932.996 6  99857187.90643  24386139.750
  24386142.555          38.200          21.100
 106562246.803 8  83035545.401 8  20278113.242    20278116.266
  20278116.281          48.000          53.400
 110774722.229 8  86317994.846 8  21079722.484    21079724.816
  21079725.109          48.000          48.300
 117463759.945 7  91530301.85345  22352623.742
  22352624.359          45.600          34.900
 123565704.541 7  96285001.89045  23513761.516
  23513762.832          43.700          30.000
 126527788.755 7  98593092.44544  24077433.781
  24077437.230          43.400          27.000
 108929049.518 8  84879807.38746  20728500.281
  20728501.766          48.100          38.700
 113577126.169 7  88501688.563 8  21613002.797    21613007.996
  21613008.148          47.800          48.900
 21  2  1  0 20 30.0000000  0 13G01G03G06G07G08G13G14G17G19G21G22G28
                                G30
 109844607.422 7  85593279.439 8  20902728.258    20902733.715
  20902733.855          47.600          48.300
 128593159.502 6 100202484.088 6  24470462.711    24470468.805
  24470468.328          38.700          39.600
 128505876.570 6 100134484.229 6  24453854.602    24453861.875
  24453861.145          39.900          39.200
 123891646.429 6  96538966.971 6  23575790.711    23575793.934
  23575794.953          38.600          36.900
 132730628.174 6 103426565.038 5  25257801.547    25257805.977
  25257806.145          38.100          30.800
 128181076.258 6  99881455.37743  24392066.102
  24392069.668          37.700          19.300
 106558346.659 7  83032506.317 8  20277371.039    20277374.074
  20277374.238          47.200          53.200
 110759601.265 7  86306212.270 8  21076845.102    21076847.516
  21076847.910          46.800          49.500
 117425691.936 7  91500638.46345  22345379.867
  22345380.848          46.600          35.400
 123608448.067 7  96318308.53544  23521894.828
  23521896.324          44.600          29.500
 126506947.066 6  98576852.19444  24073468.688
  24073471.094          41.400          28.600
 108918018.724 7  84871211.95746  20726401.297
  20726402.965          47.300          38.600
 113616494.995 8  88532365.554 7  21620494.344    21620500.063
  21620499.637          48.700          47.600
 21  2  1  0 20 45.0000000  0 13G01G03G06G07G08G13G14G17G19G21G22G28
                                G30
 109868719.024 7  85612067.714 8  20907316.781    20907321.391
  20907321.043          47.300          48.300
 128553212.470 6 100171356.549 6  24462860.570    24462867.449
  24462866.656          36.400          38.400
 128448351.090 6 100089659.188 6  24442908.977    24442915.684
  24442914.727          39.200          40.900
 123947806.911 6  96582728.394 5  23586478.289    23586481.648
  23586482.000          37.600          34.700
 132776498.174 6 103462307.789 5  25266529.000    25266534.090
  25266534.180          36.500          30.200
 128212295.209 6  99905781.78043  24398006.250
  24398010.418          37.000          20.600
 106554534.212 8  83029535.576 8  20276645.688    20276648.738
  20276649.016          48.200          53.600
 110744551.205 8  86294484.941 8  21073981.773    21073983.852
  21073984.148          48.700          49.100
 117387685.976 7  91471023.44245  22338146.852
  22338148.367          46.500          35.200
 123651250.701 7  96351661.23045  23530040.031
  23530041.410          44.100          30.300
 126486201.732 7  98560686.97644  24069521.422
  24069522.988          42.100          29.700
 108907045.192 7  84862661.15646  20724313.156
  20724314.945          47.100          37.600
 113655966.230 7  88563122.350 8  21628005.523    21628011.309
  21628011.234          46.500          48.800
 21  2  1  0 21  0.0000000  0 13G01G03G06G07G08G13G14G17G19G21G22G28
                                G30
 109892977.860 7  85630970.729 7  20911932.656    20911938.422
  20911937.996          47.900          47.600
 128513303.179 6 100140258.412 6  24455267.539    24455273.723
  24455272.449          38.900          36.400
 128390844.495 6 100044848.870 6  24431965.563    24431971.988
  24431971.617          40.500          40.500
 124004000.161 6  96626515.325 6  23597172.781    23597175.039
  23597175.586          40.200          38.300
 132822354.206 5 103498039.753 4  25275255.516    25275261.020
  25275259.457          35.500          29.900
 128243589.874 5  99930167.21943  24403963.844
  24403965.723          34.200          19.600
 106550810.016 8  83026633.596 9  20275937.094    20275939.992
  20275940.164          48.400          54.600
 110729572.391 8  86282813.153 8  21071130.563    21071133.027
  21071134.074          49.100          49.000
 117349742.681 7  91441457.25045  22330926.781
  22330927.297          46.800          34.200
 123694112.544 7  96385060.06845  23538195.641
  23538197.715          43.500          30.200
 126465553.552 6  98544597.52744  24065591.039
  24065593.375          41.800          28.700
 108896129.481 7  84854155.40946  20722236.164
  20722237.621          46.600          36.700
 113695540.006 7  88593959.064 8  21635536.250    21635541.863
  21635542.324          47.000          48.700
 21  2  1  0 21 15.0000000  0 13G01G03G06G07G08G13G14G17G19G21G22G28
                                G30
 109917383.269 7  85649987.922 7  20916576.938    20916582.277
  20916582.359          47.100          47.300
 128473431.588 6 100109189.699 6  24447679.500    24447685.914
  24447685.383          36.200          39.200
 128333356.677 6 100000053.247 6  24421026.148    24421032.891
  24421032.125          40.200          40.500
 124060225.343 6  96670327.154 6  23607871.906    23607874.027
  23607874.512          40.300          40.800
 132868196.002 6 103533760.758 4  25283979.242    25283983.473
  25283982.906          36.900          27.600
 128274959.529 6  99954611.15343  24409931.953
  24409934.758          37.500          19.300
 106547173.747 7  83023800.144 9  20275245.211    20275248.109
  20275248.352          47.300          54.000
 110714664.527 8  86271196.627 8  21068293.844    21068296.008
  21068296.496          48.600          48.500
 117311861.610 7  91411939.54045  22323717.906
  22323719.797          45.500          35.100
 123737032.737 7  96418504.37944  23546363.016
  23546364.797          43.300          29.200
 126445002.345 6  98528583.60044  24061681.500
  24061682.164          41.300          27.300
 108885271.398 7  84845694.56445  20720170.000
  20720171.641          46.000          35.400
 113735215.639 7  88624875.106 7  21643086.586    21643091.289
  21643091.457          47.500          47.600
 21  2  1  0 21 30.0000000  0 13G01G03G06G07G08G13G14G17G19G21G22G28
                                G30
 109941935.165 8  85669119.271 7  20921249.039    20921254.348
  20921254.766          48.000          47.500
 128433598.355 5 100078150.839 6  24440098.523    24440105.258
  24440105.098          33.600          38.900
 128275888.184 6  99955272.613 7  24410090.156    24410096.184
  24410096.316          39.500          42.200
 124116482.373 7  96714163.800 6  23618577.641    23618580.348
  23618580.711          42.500          40.600
 132914023.389 6 103569470.392 4  25292699.203    25292703.848
  25292703.633          36.000          25.500
 128306404.125 6  99979113.41643  24415915.602
  24415918.082          38.000          19.600
 106543625.815 7  83021035.513 8  20274570.281    20274572.953
  20274573.117          47.500          53.700
 110699827.953 8  86259635.682 7  21065470.359    21065472.977
  21065472.969          48.200          47.900
 117274043.090 7  91382470.56645  22316521.297
  22316522.617          47.200          35.300
 123780011.293 7  96451994.17144  23554541.430
  23554543.879          43.400          29.400
 126424548.567 7  98512645.61544  24057788.461
  24057789.875          42.200          26.700
 108874471.238 7  84837278.85545  20718114.977
  20718116.145          45.600          34.500
 113774992.929 7  88655870.412 8  21650656.000    21650661.191
  21650660.813          47.600          48.100
 21  2  1  0 21 45.0000000  0 13G01G03G06G07G08G13G14G17G19G21G22G28
                                G30
 109966633.501 7  85688364.733 7  20925949.297    20925954.066
  20925954.359          46.300          47.700
 128393804.023 6 100047142.341 6  24432526.266    24432532.598
  24432532.605          37.700          38.100
 128218439.524 6  99910507.462 6  24399157.719    24399164.418
  24399164.375          39.500          41.800
 124172771.018 7  96758025.074 6  23629288.680    23629291.590
  23629291.742          42.700          39.800
 132959836.527 5 103605168.880 4  25301416.930    25301420.379
  25301421.160          33.600          27.400
 128337923.316 6 100003673.81243  24421913.492
  24421915.945          37.200          20.400
 106540166.477 8  83018339.934 8  20273911.875    20273914.758
  20273914.648          48.400          53.800
 110685062.350 8  86248130.011 8  21062661.125    21062663.180
  21062663.422          48.800          49.000
 117236287.266 7  91353050.46245  22309336.273
  22309337.684          46.000          35.100
 123823048.137 7  96485529.38444  23562730.750
  23562733.543          43.900          29.800
 126404192.628 6  98496783.85644  24053914.969
  24053916.730          40.900          27.300
 108863729.264 7  84828908.50445  20716070.094
  20716072.191          43.400          33.300
 113814871.882 7  88686944.918 7  21658244.063    21658250.215
  21658249.574          46.700          47.800
 21  2  1  0 22  0.0000000  0 13G01G03G06G07G08G13G14G17G19G21G22G28
                                G30
 109991477.768 7  85707723.907 7  20930676.945    20930681.613
  20930681.867          47.900          47.600
 128354048.771 6 100016164.209 6  24424961.297    24424967.824
  24424967.840          37.300          37.700
 128161010.724 6  99865757.756 6  24388228.578    24388235.898
  24388235.590          37.700          41.700
 124229090.767 7  96801910.558 6  23640005.703    23640009.359
  23640009.898          43.400          41.300
 133005635.230 5 103640856.208 5  25310131.406    25310137.660
  25310137.387          30.800          33.400
 128369516.509 6 100028291.84443  24427924.961
  24427927.992          37.700          19.000
 106536795.647 7  83015713.318 9  20273270.383    20273273.293
  20273273.469          47.600          54.000
 110670367.503 8  86236679.484 8  21059864.961    21059866.773
  21059867.043          48.900          48.200
 117198594.019 7  91323679.11045  22302164.414
  22302165.605          47.200          34.800
 123866142.487 7  96519109.39944  23570932.180
  23570934.344          43.700          29.300
 126383934.622 6  98480998.39244  24050059.961
  24050061.484          41.800          26.000
 108853045.440 7  84820583.46145  20714036.789
  20714038.793          42.400          31.500
 113854851.875 7  88718098.147 8  21665852.406    21665858.223
  21665858.086          47.400          48.300
 21  2  1  0 22 15.0000000  0 12G01G03G06G07G13G14G17G19G21G22G28G30
 110016467.715 7  85727196.602 7  20935432.344    20935437.250
  20935437.164          47.800          47.900
 128314333.135 6  99985216.930 6  24417403.922    24417409.734
  24417409.895          38.100          38.000
 128103602.162 6  99821023.853 6  24377303.898    24377311.410
  24377310.805          37.900          40.300
 124285441.335 7  96845820.051 6  23650729.148    23650731.379
  23650732.449          43.400          40.200
 128401183.356 6 100052967.30643  24433951.516
  24433954.809          38.100          19.600
 106533513.503 7  83013155.804 8  20272645.352    20272648.461
  20272648.598          46.000          53.900
 110655743.676 8  86225284.311 8  21057081.742    21057084.371
  21057084.352          49.700          48.300
 117160963.468 7  91294356.60945  22295003.023
  22295004.754          46.800          35.300
 123909294.309 7  96552734.17545  23579143.617
  23579145.359          43.600          30.400
 126363774.868 7  98465289.52844  24046224.563
  24046224.988          42.100          27.700
 108842419.954 7  84812303.89445  20712014.633
  20712016.957          42.000          30.300
 113894932.688 7  88749329.955 8  21673479.922    21673484.848
  21673484.934          47.000          48.600
 21  2  1  0 22 30.0000000  0 13G01G03G06G07G08G13G14G17G19G21G22G28
                                G30
 110041603.169 7  85746782.657 7  20940215.836    20940220.707
  20940220.641          47.000          47.700
 128274657.486 6  99954300.781 5  24409855.094    24409859.590
  24409859.133          38.400          33.100
 128046214.109 6  99776305.971 6  24366383.352    24366391.402
  24366390.566          38.100          40.600
 124341822.424 6  96889753.346 6  23661457.938    23661460.625
  23661461.367          41.100          39.200
 133097188.790 5 103712196.687 6  25327555.313    25327562.039
  25327563.379          33.200          37.300
 128432923.588 6 100077699.97543  24439991.438
  24439994.285          38.700          19.300
 106530320.210 7  83010667.534 8  20272038.031    20272040.914
  20272041.133          46.800          53.800
 110641190.373 7  86213944.064 8  21054311.938    21054314.570
  21054314.844          47.800          48.400
 117123395.781 7  91265083.07945  22287854.742
  22287855.367          47.000          35.300
 123952503.377 7  96586403.56044  23587366.578
  23587367.766          43.900          29.100
 126343713.740 6  98449657.49444  24042406.078
  24042406.973          41.400          27.300
 108831853.063 6  84804069.95445  20710003.836
  20710006.090          41.500          30.100
 113935114.038 7  88780640.091 7  21681126.133    21681131.070
  21681131.340          47.100          47.600
 21  2  1  0 22 45.0000000  0 12G01G03G06G07G13G14G17G19G21G22G28G30
 110066883.813 7  85766481.859 7  20945026.211    20945031.348
  20945031.402          47.900          47.900
 128235022.158 6  99923416.203 5  24402311.578    24402317.223
  24402315.535          41.700          33.600
 127988846.949 6  99731604.350 6  24355467.141    24355474.574
  24355473.980          38.700          40.000
 124398233.717 6  96933710.141 6  23672192.227    23672195.387
  23672195.613          39.400          39.400
 128464736.886 6 100102489.54143  24446044.602
  24446047.613          37.300          19.300
 106527215.864 8  83008248.581 8  20271447.031    20271450.059
  20271450.297          48.100          53.800
 110626707.880 8  86202659.007 7  21051556.383    21051558.074
  21051558.012          48.400          47.600
 117085890.967 7  91235858.55845  22280718.094
  22280718.578          47.300          35.100
 123995769.295 7  96620117.25644  23595599.359
  23595600.996          42.600          29.000
 126323751.439 6  98434102.45844  24038607.508
  24038608.789          41.300          28.200
 108821344.907 7  84795881.79345  20708003.961
  20708006.340          42.300          30.200
 113975395.621 7  88812028.312 7  21688791.578    21688796.414
  21688796.121          47.300          47.000
 21  2  1  0 23  0.0000000  0 13G01G03G06G07G08G13G14G17G19G21G22G28
                                G30
 110092309.294 7  85786293.917 7  20949864.953    20949869.430
  20949869.738          46.700          47.600
 128195427.517 6  99892563.242 6  24394776.078    24394782.238
  24394781.980          40.000          37.200
 127931501.004 6  99686919.223 6  24344554.477    24344562.105
  24344561.160          39.300          38.400
 124454674.685 6  96977690.121 6  23682932.359    23682936.238
  23682936.590          38.600          40.600
 133188684.281 5 103783491.795 6  25344964.625    25344972.273
  25344971.465          31.300          37.100
 128496622.873 6 100127335.75843  24452112.406
  24452115.969          38.900          19.000
 106524200.564 7  83005898.996 8  20270873.242    20270876.574
  20270876.914          47.500          53.500
 110612295.778 8  86191428.826 8  21048814.141    21048816.082
  21048816.113          49.400          48.200
 117048449.054 7  91206683.05645  22273592.266
  22273593.199          47.500          35.300
 124039091.718 7  96653874.98844  23603843.742
  23603845.578          43.000          29.300
 126303888.016 6  98418624.45244  24034827.609
  24034829.594          40.900          27.300
 108810895.458 7  84787739.39745  20706016.625
  20706018.223          42.100          30.400
 114015776.978 7  88843494.333 8  21696475.633    21696480.848
  21696480.578          47.300          48.200
 21  2  1  0 23 15.0000000  0 13G01G03G06G07G08G13G14G17G19G21G22G28
                                G30
 110117879.432 7  85806218.696 7  20954730.352    20954734.957
  20954735.090          47.500          47.600
 128155874.092 6  99861742.307 6  24387250.297    24387256.078
  24387256.398          40.200          37.800
 127874176.367 6  99642250.688 6  24333644.977    24333652.871
  24333652.527          37.800          38.900
 124511145.149 6  97021692.991 6  23693677.750    23693682.277
  23693682.652          38.000          36.100
 133234409.557 5 103819121.856 6  25353666.523    25353673.242
  25353672.238          32.500          37.900
 128528581.121 6 100152238.25443  24458194.039
  24458197.723          38.100          19.900
 106521274.492 7  83003618.926 8  20270316.617    20270319.645
  20270319.793          47.700          53.600
 110597954.283 8  86180253.637 8  21046084.820    21046087.777
  21046088.020          48.500          49.200
 117011070.062 7  91177556.57645  22266479.586
  22266480.273          47.000          35.200
 124082470.463 7  96687676.61344  23612097.766
  23612100.223          43.100          29.400
 126284124.135 6  98403224.03944  24031067.664
  24031067.996          39.900          26.200
 108800504.914 7  84779642.86145  20704039.891
  20704041.629          43.000          31.200
 114056257.950 7  88875037.947 8  21704178.586    21704184.027
  21704183.988          47.600          48.000
 21  2  1  0 23 30.0000000  0 13G01G03G06G07G08G13G14G17G19G21G22G28
                                G30
 110143593.850 7  85826255.913 7  20959623.500    20959628.449
  20959628.566          46.700          47.500
 128116362.104 6  99830953.800 6  24379729.516    24379737.055
  24379737.441          39.000          39.500
 127816873.494 6  99597599.125 6  24322741.492    24322748.930
  24322747.848          39.000          38.000
 124567644.654 6  97065718.525 5  23704429.742    23704432.617
  23704433.207          37.000          35.300
 133280119.863 5 103854740.292 6  25362366.086    25362371.809
  25362371.527          33.200          40.100
 128560611.196 6 100177196.75143  24464289.828
  24464292.914          38.600          20.400
 106518437.684 7  83001408.415 8  20269776.680    20269779.820
  20269779.781          47.200          53.500
 110583683.128 8  86169133.250 8  21043368.914    21043371.621
  21043371.402          48.300          48.200
 116973754.006 7  91148479.12245  22259378.586
  22259379.758          47.300          34.700
 124125905.179 7  96721521.85944  23620363.836
  23620365.469          42.700          27.700
 126264460.014 6  98387901.32544  24027326.578
  24027325.660          41.300          27.500
 108790173.375 7  84771592.30345  20702073.758
  20702075.086          43.700          31.600
 114096838.139 7  88906658.869 7  21711900.445    21711905.977
  21711905.828          47.100          47.600
 21  2  1  0 23 45.0000000  0 13G01G03G06G07G08G13G14G17G19G21G22G28
                                G30
 110169452.284 7  85846405.354 7  20964544.352    20964549.332
  20964549.363          46.700          47.300
 128076891.987 6  99800197.911 7  24372220.211    24372226.527
  24372227.035          38.700          42.700
 127759592.632 6  99552964.670 6  24311842.414    24311848.309
  24311848.336          39.500          39.500
 124624172.754 6  97109766.426 5  23715187.016    23715189.727
  23715190.371          38.900          35.100
 133325815.391 5 103890347.109 6  25371060.906    25371066.543
  25371067.121          34.200          39.200
 128592712.537 6 100202210.81143  24470397.383
  24470401.602          37.700          19.600
 106515690.240 7  82999267.554 8  20269253.789    20269257.180
  20269257.340          46.200          53.400
 110569482.506 8  86158067.843 7  21040666.859    21040669.148
  21040668.641          49.200          47.700
 116936501.014 8  91119450.83645  22252289.664
  22252290.418          48.100          35.900
 124169395.484 7  96755410.39944  23628639.828
  23628641.648          43.200          28.900
 126244895.651 7  98372656.41744  24023602.914
  24023602.484          43.000          27.400
 108779900.939 7  84763587.80045  20700118.641
  20700119.895          44.700          32.000
 114137517.192 7  88938356.810 7  21719641.875    21719647.379
  21719647.043          46.400          46.800
 21  2  1  0 24  0.0000000  0 12G01G03G06G07G13G14G17G19G21G22G28G30
 110195454.345 7  85866666.693 8  20969492.711    20969497.211
  20969497.289          46.300          48.000
 128037464.078 6  99769474.834 7  24364717.430    24364724.203
  24364724.305          37.000          42.000
 127702333.923 6  99508347.505 6  24300946.195    24300952.734
  24300951.977          40.400          36.700
 124680729.118 6  97153836.297 5  23725949.711    23725953.043
  23725952.215          36.800          33.500
 128624885.022 6 100227280.25943  24476520.164
  24476523.016          38.700          18.300
 106513032.206 7  82997196.362 8  20268748.359    20268750.824
  20268751.027          46.100          53.600
 110555352.054 8  86147057.108 8  21037977.969    21037980.496
  21037980.582          49.300          48.300
 116899311.091 7  91090471.69046  22245212.719
  22245213.766          46.500          36.000
 124212940.992 7  96789341.95944  23636926.188
  23636928.164          43.800          29.300
 126225431.467 6  98357489.55144  24019898.148
  24019898.609          41.400          26.600
 108769687.648 7  84755629.39945  20698175.508
  20698176.703          44.300          31.500
 114178294.708 7  88970131.481 8  21727401.578    21727406.980
  21727407.043          47.400          48.000
 21  2  1  0 24 15.0000000  0 12G01G03G06G07G13G14G17G19G21G22G28G30
 110221600.204 7  85887040.097 8  20974468.008    20974472.828
  20974472.938          47.200          48.300
 127998079.201 6  99738785.330 6  24357222.023    24357229.320
  24357228.895          36.800          41.500
 127645098.194 6  99463748.237 6  24290053.945    24290060.180
  24290059.355          39.500          36.200
 124737313.783 6  97197928.184 5  23736717.523    23736720.879
  23736719.691          39.100          33.000
 128657128.478 6 100252405.06343  24482655.961
  24482658.934          37.600          19.300
 106510464.156 7  82995195.298 8  20268259.500    20268262.035
  20268262.168          47.000          53.700
 110541292.282 8  86136101.449 7  21035302.203    21035304.258
  21035304.465          49.000          47.900
 116862184.540 7  91061541.93146  22238147.383
  22238148.883          47.300          36.400
 124256541.737 6  96823316.55844  23645222.914
  23645224.813          41.700          28.500
 126206068.114 6  98342401.24044  24016213.289
  24016214.262          41.100          26.600
 108759534.150 7  84747717.57445  20696243.633
  20696244.477          43.900          31.400
 114219170.835 7  89001983.034 7  21735180.258    21735185.797
  21735185.664          47.600          47.400
 21  2  1  0 24 30.0000000  0 12G01G03G06G07G13G14G17G19G21G22G28G30
 110247889.271 7  85907525.096 8  20979470.219    20979475.629
  20979475.941          46.900          48.900
 127958737.411 6  99708129.419 6  24349736.758    24349742.609
  24349742.613          39.300          41.900
 127587885.404 6  99419166.847 6  24279167.039    24279173.133
  24279172.266          39.600          36.800
 124793926.033 6  97242041.650 6  23747491.063    23747493.523
  23747492.965          40.900          37.100
 128689442.240 6 100277584.60243  24488805.180
  24488807.855          40.300          19.300
 106507985.886 7  82993264.186 9  20267787.695    20267790.797
  20267790.918          47.000          54.200
 110527302.448 8  86125200.291 7  21032640.055    21032642.313
  21032642.105          48.800          47.900
 116825121.092 7  91032661.32546  22231094.516
  22231096.156          46.800          36.200
 124300197.149 6  96857333.76544  23653530.586
  23653532.445          41.600          28.000
 126186805.454 6  98327391.37444  24012548.273
  24012548.734          40.900          27.300
 108749440.228 7  84739852.17445  20694322.305
  20694323.727          43.400          30.900
 114260144.894 7  89033910.847 8  21742977.109    21742982.984
  21742982.863          46.700          48.100
 21  2  1  0 24 45.0000000  0 12G01G03G06G07G13G14G17G19G21G22G28G30
 110274321.311 7  85928121.474 8  20984500.727    20984505.863
  20984505.973          46.200          48.800
 127919439.175 6  99677507.467 6  24342257.023    24342264.922
  24342264.813          38.500          41.900
 127530695.896 6  99374603.540 6  24268284.406    24268290.309
  24268289.402          38.200          39.200
 124850565.622 7  97286176.374 6  23758269.109    23758271.688
  23758272.266          43.100          39.200
 128721826.130 6 100302818.77343  24494967.266
  24494970.676          39.100          20.400
 106505597.592 7  82991403.171 8  20267333.422    20267336.230
  20267336.242          47.400          53.700
 110513382.714 7  86114353.746 8  21029991.297    21029993.867
  21029994.094          47.900          48.900
 116788121.000 7  91003830.06745  22224053.836
  22224055.012          46.500          35.800
 124343907.083 6  96891393.43844  23661847.758
  23661850.344          41.200          27.700
 126167643.738 6  98312460.20844  24008900.930
  24008902.672          41.600          28.100
 108739406.137 7  84732033.40745  20692412.438
  20692414.078          42.900          30.100
 114301216.617 7  89065914.791 8  21750792.766    21750798.000
  21750798.160          46.900          48.300
 21  2  1  0 25  0.0000000  0 12G01G03G06G07G13G14G17G19G21G22G28G30
 110300896.026 7  85948829.052 8  20989557.297    20989562.535
  20989562.816          45.900          48.500
 127880184.881 6  99646919.689 7  24334788.133    24334794.684
  24334795.328          37.900          42.500
 127473529.894 6  99330058.619 6  24257405.328    24257412.156
  24257411.539          37.200          41.000
 124907232.259 6  97330332.153 6  23769052.133    23769054.949
  23769055.215          41.200          40.000
 128754279.779 6 100328107.31943  24501143.180
  24501146.242          37.300          19.900
 106503299.352 7  82989612.334 8  20266896.141    20266898.945
  20266898.633          46.900          53.400
 110499532.782 8  86103561.577 8  21027355.836    21027358.426
  21027358.695          48.600          49.300
 116751184.394 7  90975048.32645  22217024.992
  22217026.332          47.400          35.800
 124387671.241 7  96925495.40044  23670175.641
  23670178.328          42.600          28.000
 126148583.303 6  98297607.92444  24005274.195
  24005275.328          40.800          26.600
 108729431.941 7  84724261.28945  20690514.539
  20690516.406          43.100          30.300
 114342385.745 7  89097994.641 7  21758627.070    21758632.199
  21758632.211          47.600          47.700
 21  2  1  0 25 15.0000000  0 12G01G03G06G07G13G14G17G19G21G22G28G30
 110327612.973 7  85969647.450 8  20994640.961    20994646.469
  20994646.887          46.200          48.500
 127840974.756 6  99616366.378 7  24327326.563    24327333.613
  24327333.488          37.300          43.600
 127416387.614 6  99285532.234 6  24246529.664    24246538.629
  24246538.238          36.000          41.500
 124963925.576 6  97374508.720 6  23779840.211    23779842.949
  23779844.078          40.200          38.600
 128786802.601 6 100353449.76743  24507333.039
  24507335.348          36.600          18.600
 106501091.189 7  82987891.672 8  20266476.117    20266478.250
  20266478.059          47.900          53.000
 110485752.699 8  86092823.862 8  21024733.297    21024735.590
  21024735.746          48.500          48.400
 116714311.122 7  90946315.91545  22210008.727
  22210009.445          46.600          35.800
 124431489.206 7  96959639.28144  23678513.930
  23678516.152          42.100          28.200
 126129624.172 6  98282834.63143  24001665.680
  24001667.281          41.300          23.200
 108719517.609 7  84716535.82045  20688627.977
  20688629.430          42.600          30.600
 114383651.770 7  89130149.959 7  21766479.547    21766484.980
  21766484.895          46.500          47.300
 21  2  1  0 25 30.0000000  0 12G01G03G06G07G13G14G17G19G21G22G28G30
 110354472.102 7  85990576.634 8  20999752.266    20999757.793
  20999758.297          45.800          48.000
 127801809.330 6  99585847.905 6  24319872.484    24319879.984
  24319880.504          37.900          41.700
 127359269.537 6  99241024.702 6  24235661.789    24235669.742
  24235669.008          37.400          41.300
 125020645.249 6  97418705.858 6  23790633.578    23790636.793
  23790637.180          41.800          38.700
 128819394.342 6 100378845.94443  24513534.320
  24513537.070          39.700          18.600
 106498973.353 7  82986241.409 8  20266073.047    20266075.148
  20266075.254          46.800          53.600
 110472042.453 8  86082140.573 8  21022124.508    21022126.887
  21022127.105          48.800          48.200
 116677501.399 7  90917633.01745  22203003.680
  22203004.973          47.200          34.900
 124475360.905 7  96993825.01944  23686862.227
  23686864.547          42.900          28.200
 126110766.867 6  98268140.62744  23998077.430
  23998078.727          40.200          25.700
 108709663.376 7  84708857.19645  20686752.742
  20686754.711          42.600          30.300
 114425014.535 7  89162380.674 8  21774350.992    21774355.969
  21774356.180          47.300          48.300
 21  2  1  0 25 45.0000000  0 12G01G03G06G07G13G14G17G19G21G22G28G30
 110381473.092 7  86011616.359 8  21004890.375    21004895.641
  21004896.336          45.700          49.000
 127762689.164 6  99555364.743 6  24312428.336    24312436.141
  24312436.203          36.400          41.300
 127302176.022 6  99196536.315 6  24224797.953    24224805.613
  24224804.977          38.400          41.800
 125077390.850 6  97462923.198 6  23801431.148    23801435.672
  23801436.406          40.800          38.500
 128852054.636 6 100404295.54843  24519750.086
  24519751.844          39.500          19.900
 106496945.947 7  82984661.624 8  20265686.914    20265689.645
  20265689.918          46.300          53.400
 110458402.112 7  86071511.743 8  21019528.547    21019531.398
  21019531.531          47.500          48.400
 116640755.161 7  90888999.60345  22196010.484
  22196011.734          47.300          34.800
 124519286.045 7  97028052.39044  23695221.313
  23695223.316          43.200          27.600
 126092011.659 6  98253526.17744  23994508.859
  23994509.996          40.300          24.800
 108699869.543 7  84701225.65645  20684888.414
  20684890.691          42.300          31.400
 114466473.759 7  89194686.575 7  21782240.586    21782245.758
  21782245.766          47.400          47.600
 21  2  1  0 26  0.0000000  0 12G01G03G06G07G13G14G17G19G21G22G28G30
 110408615.558 7  86032766.324 8  21010055.828    21010060.660
  21010061.535          46.900          48.800
 127723614.489 6  99524916.974 6  24304992.984    24304999.695
  24305000.758          39.200          40.900
 127245107.299 6  99152067.196 7  24213937.797    24213945.324
  24213944.645          40.100          42.600
 125134162.019 6  97507160.433 6  23812233.703    23812238.797
  23812239.176          38.300          39.100
 128884783.041 6 100429798.21043  24525976.906
  24525980.418          40.500          20.100
 106495009.113 7  82983152.427 8  20265318.242    20265321.125
  20265321.398          45.500          53.500
 110444831.630 7  86060937.325 8  21016946.367    21016948.922
  21016949.117          47.700          48.500
 116604072.484 8  90860415.71845  22189030.273
  22189031.379          48.100          35.200
 124563264.159 7  97062321.05344  23703589.906
  23703591.516          43.300          27.200
 126073358.792 6  98238991.49144  23990959.461
  23990959.891          40.800          25.300
 108690136.083 7  84693641.14645  20683036.398
  20683038.832          42.700          32.400
 114508029.024 7  89227067.297 7  21790147.977    21790153.027
  21790152.324          47.000          46.400
 21  2  1  0 26 15.0000000  0 12G01G03G06G07G13G14G17G19G21G22G28G30
 110435899.228 7  86054026.338 8  21015248.227    21015252.770
  21015253.297          45.800          48.700
 127684585.696 6  99494504.923 7  24297566.016    24297572.672
  24297573.457          38.900          42.000
 127188063.600 6  99107617.578 7  24203083.039    24203089.852
  24203089.582          41.400          42.400
 125190958.508 6  97551417.342 6  23823042.164    23823045.918
  23823046.855          36.900          36.300
 128917579.085 6 100455353.55843  24532217.742
  24532221.125          38.400          20.900
 106493162.918 7  82981713.830 8  20264967.281    20264969.320
  20264969.492          46.400          53.200
 110431330.605 8  86050417.057 7  21014377.414    21014379.918
  21014380.289          48.700          47.900
 116567453.469 7  90831881.44145  22182061.844
  22182062.754          47.600          35.600
 124607294.984 7  97096630.78644  23711968.750
  23711970.625          44.200          27.700
 126054808.513 6  98224536.75144  23987430.070
  23987430.063          40.800          25.600
 108680463.243 7  84686103.86945  20681196.328
  20681197.965          43.500          33.000
 114549679.991 7  89259522.566 7  21798073.563    21798078.766
  21798078.766          46.300          47.300
 21  2  1  0 26 30.0000000  0 12G01G03G06G07G13G14G17G19G21G22G28G30
 110463323.795 7  86075396.139 8  21020466.375    21020471.664
  21020472.219          47.100          48.000
 127645603.164 6  99464128.894 6  24290146.719    24290154.164
  24290154.824          38.600          39.700
 127131045.191 6  99063187.678 7  24192232.914    24192239.918
  24192239.707          41.400          43.400
 125247779.768 6  97595693.684 5  23833855.125    23833857.512
  23833858.613          38.300          35.500
 128950442.511 6 100480961.39843  24538471.602
  24538474.973          40.200          19.600
 106491407.433 7  82980345.894 8  20264633.430    20264635.660
  20264635.855          47.500          52.900
 110417899.005 7  86039950.888 8  21011821.016    21011824.063
  21011824.211          47.600          49.300
 116530898.036 7  90803396.67345  22175105.859
  22175106.523          47.500          34.600
 124651378.133 7  97130981.27044  23720357.484
  23720359.262          43.300          28.600
 126036361.070 6  98210162.09444  23983919.680
  23983919.426          41.200          26.100
 108670851.021 7  84678613.82445  20679367.258
  20679369.082          42.600          33.800
 114591426.337 7  89292052.187 7  21806017.883    21806022.848
  21806022.738          46.200          47.900
 21  2  1  0 26 45.0000000  0 12G01G03G06G07G13G14G17G19G21G22G28G30
 110490889.110 7  86096875.624 8  21025711.797    21025717.098
  21025717.344          47.300          48.400
 127606667.463 6  99433789.410 6  24282737.883    24282745.313
  24282745.488          39.000          38.800
 127074052.556 6  99018777.846 7  24181387.320    24181394.477
  24181393.961          40.200          42.200
 125304625.697 6  97639989.178 5  23844673.859    23844675.605
  23844676.113          38.400          35.800
 128983373.161 6 100506621.66943  24544738.375
  24544741.609          39.000          18.300
 106489742.993 7  82979048.925 8  20264316.406    20264318.531
  20264318.438          46.600          53.100
 110404537.126 8  86029539.026 8  21009278.477    21009281.027
  21009281.094          48.500          49.300
 116494406.426 7  90774961.66045  22168161.484
  22168162.262          47.500          35.300
 124695513.477 7  97165372.44244  23728756.094
  23728757.469          42.900          27.200
 126018016.819 7  98195867.89344  23980428.305
  23980429.109          42.500          26.500
 108661299.916 7  84671171.42445  20677549.602
  20677551.641          43.600          33.300
 114633267.940 7  89324656.058 7  21813980.031    21813985.156
  21813985.031          46.400          47.500
 21  2  1  0 27  0.0000000  0 12G01G03G06G07G13G14G17G19G21G22G28G30
 110518594.699 7  86118464.386 8  21030983.445    21030989.324
  21030989.953          47.200          48.800
 127567778.759 6  99403486.592 6  24275338.289    24275345.246
  24275343.945          38.100          38.500
 127017085.852 6  98974388.207 6  24170546.672    24170553.902
  24170553.363          39.900          40.200
 125361495.766 6  97684303.589 5  23855495.672    23855497.879
  23855497.664          40.100          34.300
 129016370.413 6 100532333.86243  24551017.242
  24551021.172          39.000          18.300
 106488169.483 7  82977822.809 8  20264016.867    20264019.531
  20264019.543          46.400          53.700
 110391244.546 8  86019181.200 8  21006748.977    21006751.512
  21006751.559          48.800          48.800
 116457978.497 8  90746576.25945  22161229.789
  22161230.527          48.000          35.400
 124739700.693 6  97199804.04244  23737165.789
  23737166.660          41.900          27.300
 125999775.774 6  98181654.09944  23976958.180
  23976957.172          41.300          25.800
 108651809.661 7  84663776.42245  20675743.781
  20675745.461          43.800          34.000
 114675204.179 7  89357333.616 7  21821960.336    21821965.820
  21821965.496          46.300          46.400
 21  2  1  0 27 15.0000000  0 12G01G03G06G07G13G14G17G19G21G22G28G30
 110546440.412 7  86140162.334 8  21036282.750    21036287.934
  21036288.688          45.400          49.200
 127528937.683 6  99373220.753 6  24267947.734    24267954.219
  24267953.707          37.500          40.200
 126960145.382 6  98930019.061 6  24159711.695    24159718.477
  24159717.750          38.300          37.900
 125418389.719 6  97728636.500 5  23866322.063    23866324.898
  23866324.504          40.800          35.900
 129049434.192 6 100558097.84643  24557308.930
  24557312.223          38.600          18.300
 106486687.139 7  82976667.747 8  20263734.813    20263737.516
  20263737.625          44.600          53.400
 110378021.409 8  86008877.450 8  21004232.898    21004235.047
  21004235.395          48.700          48.900
 116421614.420 8  90718240.61845  22154310.383
  22154310.340          48.100          35.000
 124783939.358 7  97234275.74044  23745582.578
  23745585.824          43.200          27.200
 125981638.482 7  98167521.15344  23973505.641
  23973505.551          43.000          26.700
 108642380.600 7  84656429.11245  20673949.969
  20673950.887          44.000          33.300
 114717234.972 7  89390084.869 7  21829958.445    21829963.547
  21829963.184          45.800          47.000
 21  2  1  0 27 30.0000000  0 12G01G03G06G07G13G14G17G19G21G22G28G30
 110574425.830 7  86161969.145 8  21041608.570    21041614.020
  21041614.332          47.000          48.400
 127490144.396 6  99342992.259 6  24260565.547    24260571.512
  24260570.789          38.900          37.900
 126903231.517 6  98885670.565 6  24148880.984    24148887.539
  24148886.785          39.000          38.700
 125475307.181 6  97772987.770 5  23877153.250    23877156.203
  23877156.418          41.800          35.800
 129082563.785 6 100583913.09043  24563613.547
  24563616.328          40.400          19.300
 106485296.012 7  82975583.775 8  20263469.984    20263472.965
  20263473.012          46.000          53.700
 110364867.448 8  85998627.600 8  21001729.945    21001732.414
  21001732.359          48.600          48.600
 116385314.166 7  90689954.71845  22147402.234
  22147402.902          47.600          35.700
 124828229.296 6  97268787.41944  23754010.711
  23754012.965          41.600          25.300
 125963604.983 7  98153469.08344  23970074.844
  23970074.066          42.000          26.700
 108633012.796 7  84649129.53145  20672166.359
  20672168.133          43.600          32.300
 114759359.828 7  89422909.395 7  21837974.180    21837979.730
  21837979.453          45.400          47.200
 21  2  1  0 27 45.0000000  0 12G01G03G06G07G13G14G17G19G21G22G28G30
 110602550.808 7  86183884.716 8  21046960.203    21046965.809
  21046965.891          46.500          48.400
 127451399.474 6  99312801.454 6  24253192.375    24253198.980
  24253198.629          40.200          41.100
 126846344.552 6  98841343.030 6  24138055.805    24138061.875
  24138061.387          38.600          37.500
 125532247.845 6  97817357.087 6  23887988.367    23887991.344
  23887991.414          41.100          37.400
 129115758.880 6 100609779.37643  24569929.984
  24569932.691          39.900          19.000
 106483996.350 7  82974571.063 8  20263222.445    20263226.016
  20263225.992          46.600          53.700
 110351782.714 8  85988431.711 7  20999239.859    20999241.980
  20999241.984          49.300          47.900
 116349078.011 7  90661718.72745  22140506.547
  22140507.535          47.800          35.300
 124872570.352 7  97303338.88544  23762448.945
  23762450.918          42.600          24.100
 125945675.691 7  98139498.20544  23966662.453
  23966662.363          43.000          26.800
 108623706.507 7  84641877.88445  20670395.141
  20670396.211          43.200          32.800
 114801578.532 7  89455807.093 7  21846008.625    21846013.617
  21846013.340          45.100          45.900
 21  2  1  0 28  0.0000000  0 12G01G03G06G07G13G14G17G19G21G22G28G30
 110630814.938 7  86205908.715 7  21052338.977    21052344.195
  21052344.188          46.400          47.900
 127412703.278 6  99282648.520 5  24245828.094    24245835.270
  24245834.715          40.200          35.700
 126789484.745 6  98797036.700 6  24127235.711    24127242.797
  24127241.707          38.300          39.500
 125589211.274 6  97861744.210 5  23898827.984    23898831.105
  23898831.531          41.400          35.300
 129149018.968 6 100635696.28542  24576259.289
  24576261.789          36.900          17.800
 106482788.180 7  82973629.631 8  20262992.930    20262995.809
  20262995.602          46.500          53.000
 110338767.000 8  85978289.607 8  20996763.086    20996765.449
  20996765.586          48.900          48.800
 116312905.855 7  90633532.64145  22133623.211
  22133623.672          47.700          35.200
 124916962.011 6  97337929.79244  23770895.609
  23770899.125          41.300          26.600
 125927850.743 7  98125608.65544  23963270.250
  23963270.578          42.300          28.200
 108614461.789 7  84634674.18945  20668636.563
  20668637.578          44.600          31.400
 114843890.724 7  89488777.632 7  21854060.141    21854065.504
  21854064.746          44.600          46.100
 21  2  1  0 28 15.0000000  0 12G01G03G06G07G13G14G17G19G21G22G28G30
 110659218.101 7  86228041.053 8  21057743.766    21057748.781
  21057748.652          47.100          48.200
 127374056.320 6  99252534.113 5  24238474.078    24238481.148
  24238479.625          38.300          35.500
 126732652.523 6  98752751.913 7  24116419.461    24116428.480
  24116427.293          37.400          42.400
 125646197.358 6  97906148.904 5  23909671.945    23909675.000
  23909675.164          40.500          35.500
 129182343.966 6 100661663.87242  24582601.742
  24582603.746          38.800          17.400
 106481671.786 8  82972759.688 8  20262780.281    20262783.078
  20262782.941          48.100          53.000
 110325820.427 8  85968201.373 8  20994299.406    20994301.977
  20994302.227          49.200          48.700
 116276797.945 7  90605396.61745  22126752.297
  22126752.605          47.600          35.900
 124961404.113 7  97372560.01544  23779353.438
  23779354.805          42.700          25.800
 125910130.519 7  98111800.68144  23959899.414
  23959898.207          42.600          26.000
 108605278.834 7  84627518.63445  20666888.875
  20666890.066          44.100          32.200
 114886296.200 7  89521820.867 7  21862130.266    21862135.660
  21862134.797          45.800          46.200
 21  2  1  0 28 30.0000000  0 12G01G03G06G07G13G14G17G19G21G22G28G30
 110687759.672 7  86250281.237 8  21063175.563    21063179.629
  21063179.977          46.900          48.000
 127335458.743 6  99222457.911 6  24231130.352    24231134.773
  24231134.559          39.100          37.500
 126675848.020 6  98708488.685 7  24105611.117    24105618.016
  24105617.656          38.700          42.000
 125703205.410 6  97950570.761 6  23920520.406    23920523.602
  23920523.660          41.000          39.200
 129215733.240 6 100687681.46943  24588954.867
  24588957.512          39.400          18.600
 106480646.941 7  82971961.098 8  20262585.125    20262588.105
  20262588.059          47.600          52.700
 110312942.673 8  85958166.759 8  20991848.734    20991851.238
  20991851.488          49.000          49.100
 116240754.041 7  90577310.46945  22119893.203
  22119893.535          47.600          35.200
 125005896.123 7  97407229.11444  23787820.133
  23787821.559          42.400          27.500
 125892515.112 7  98098074.37644  23956546.727
  23956546.035          42.500          26.700
 108596157.635 7  84620411.20045  20665153.289
  20665154.578          44.100          32.100
 114928794.344 7  89554936.286 7  21870216.742    21870222.340
  21870221.930          46.700          46.300
 21  2  1  0 28 45.0000000  0 12G01G03G06G07G13G14G17G19G21G22G28G30
 110716439.722 7  86272629.349 7  21068632.711    21068637.063
  21068637.512          47.100          47.200
 127296911.219 6  99192420.951 6  24223794.477    24223800.184
  24223799.617          39.500          37.800
 126619071.714 6  98664247.427 6  24094806.398    24094814.281
  24094813.879          39.600          41.600
 125760235.284 6  97995009.646 6  23931372.805    23931376.281
  23931376.469          40.600          39.900
 129249186.647 6 100713749.03043  24595321.477
  24595323.512          39.900          19.000
 106479714.159 7  82971234.249 8  20262407.773    20262410.633
  20262410.738          46.900          53.500
 110300134.033 8  85948186.011 8  20989411.602    20989413.996
  20989414.117          49.500          48.600
 116204774.460 7  90549274.43545  22113046.563
  22113047.277          46.600          34.900
 125050438.188 7  97441937.20544  23796297.258
  23796298.191          44.200          26.900
 125875005.103 7  98084430.23444  23953214.430
  23953213.012          43.500          24.700
 108587098.667 7  84613352.25345  20663430.172
  20663430.789          43.700          31.900
 114971385.145 7  89588123.909 7  21878322.000    21878327.438
  21878326.949          46.700          46.700
 21  2  1  0 29  0.0000000  0 12G01G03G06G07G13G14G17G19G21G22G28G30
 110745257.756 7  86295084.967 7  21074116.492    21074120.836
  21074121.445          46.200          47.700
 127258413.959 6  99162423.057 6  24216468.563    24216474.813
  24216475.051          39.900          40.900
 126562323.801 6  98620028.292 7  24084008.273    24084015.672
  24084015.145          39.700          42.600
 125817286.620 6  98039465.201 6  23942227.977    23942232.871
  23942233.648          36.700          39.900
 129282703.531 6 100739866.11942  24601699.055
  24601700.977          39.400          17.800
 106478873.324 7  82970579.060 9  20262247.938    20262251.203
  20262251.219          46.300          54.600
 110287394.102 8  85938258.790 8  20986987.203    20986989.418
  20986989.578          48.800          48.600
 116168859.083 7  90521288.42646  22106211.844
  22106212.781          46.900          36.200
 125095029.704 7  97476683.87244  23804781.578
  23804783.324          44.100          28.000
 125857600.481 7  98070868.22244  23949902.281
  23949900.492          42.500          25.600
 108578101.852 7  84606341.74445  20661717.258
  20661718.844          43.600          31.400
 115014068.142 7  89621383.394 7  21886444.180    21886449.059
  21886448.578          46.600          47.400
 21  2  1  0 29 15.0000000  0 12G01G03G06G07G13G14G17G19G21G22G28G30
 110774213.484 7  86317647.898 7  21079626.461    21079631.137
  21079631.426          45.500          46.800
 127219967.424 6  99132464.693 6  24209152.531    24209158.672
  24209159.129          39.300          40.600
 126505604.648 6  98575831.572 6  24073215.430    24073222.137
  24073221.859          38.700          41.900
 125874359.282 6  98083937.331 6  23953089.906    23953093.559
  23953094.047          37.700          38.800
 129316283.744 6 100766032.54043  24608088.859
  24608091.504          38.300          18.600
 106478124.632 7  82969995.678 9  20262105.391    20262108.383
  20262108.711          47.600          54.100
 110274723.269 8  85928385.419 8  20984575.891    20984578.270
  20984578.699          49.500          49.100
 116133007.933 7  90493352.49946  22099389.305
  22099390.785          47.300          36.000
 125139670.549 7  97511468.94444  23813276.664
  23813277.414          42.100          25.900
 125840301.559 6  98057388.54744  23946610.250
  23946609.289          41.600          25.600
 108569167.203 7  84599379.68445  20660017.156
  20660019.320          43.200          31.400
 115056843.005 7  89654714.458 7  21894584.078    21894588.953
  21894588.656          46.700          46.600
 21  2  1  0 29 30.0000000  0 12G01G03G06G07G13G14G17G19G21G22G28G30
 110803306.549 7  86340317.809 7  21085162.836    21085167.730
  21085167.910          46.600          47.000
 127181571.864 6  99102546.124 6  24201846.133    24201852.648
  24201852.891          39.400          39.100
 126448914.284 6  98531657.296 6  24062426.539    24062434.777
  24062434.145          38.300          41.800
 125931452.522 7  98128425.534 6  23963955.594    23963957.746
  23963958.840          43.000          38.100
 129349926.827 6 100792247.87643  24614490.750
  24614494.094          38.400          19.600
 106477468.065 8  82969484.068 8  20261980.523    20261983.398
  20261983.492          48.000          53.600
 110262120.974 8  85918565.471 8  20982177.344    20982180.164
  20982180.477          48.600          49.200
 116097220.955 7  90465466.55245  22092579.906
  22092580.934          47.300          35.700
 125184360.245 7  97546292.07244  23821780.953
  23821781.539          42.800          25.900
 125823108.482 6  98043991.33644  23943339.547
  23943338.398          41.100          25.800
 108560294.812 7  84592466.13645  20658328.906
  20658330.391          43.400          33.200
 115099709.264 7  89688116.716 7  21902741.156    21902746.586
  21902746.078          46.700          46.000
 21  2  1  0 29 45.0000000  0 12G01G03G06G07G13G14G17G19G21G22G28G30
 110832536.683 7  86363094.538 8  21090724.711    21090730.008
  21090730.395          45.600          48.200
 127143227.859 6  99072667.744 6  24194548.242    24194555.898
  24194555.371          38.100          41.400
 126392253.310 6  98487505.920 6  24051644.328    24051652.164
  24051651.496          37.700          41.800
 125988566.220 7  98172929.698 6  23974823.352    23974826.203
  23974826.516          43.200          38.700
 129383632.461 6 100818512.06242  24620904.883
  24620907.633          37.400          17.800
 106476903.850 7  82969044.418 8  20261873.523    20261876.012
  20261875.898          46.800          53.000
 110249587.173 8  85908798.863 8  20979792.859    20979794.789
  20979794.879          48.500          48.200
 116061498.480 7  90437630.85345  22085782.109
  22085782.758          45.700          35.700
 125229098.659 7  97581153.18144  23830294.016
  23830294.988          42.200          25.300
 125806021.587 6  98030676.87144  23940087.867
  23940087.570          41.800          27.200
 108551485.112 7  84585601.43545  20656651.922
  20656653.973          44.100          34.100
 115142666.762 7  89721590.094 7  21910915.641    21910920.680
  21910920.227          47.200          47.100
 21  2  1  0 30  0.0000000  0 12G01G03G06G07G13G14G17G19G21G22G28G30
 110861903.796 7  86385977.996 8  21096313.180    21096318.680
  21096319.395          45.900          48.400
 127104935.961 6  99042829.909 6  24187262.680    24187269.410
  24187269.148          39.700          41.600
 126335622.114 6  98443377.750 6  24040867.703    24040875.953
  24040875.191          39.000          41.900
 126045700.202 7  98217449.652 6  23985695.125    23985698.727
  23985698.941          42.100          37.000
 129417400.396 6 100844824.71943  24627330.875
  24627333.820          39.200          18.300
 106476432.249 7  82968676.928 8  20261782.883    20261786.172
  20261786.105          47.000          53.400
 110237121.822 8  85899085.608 8  20977420.781    20977422.969
  20977422.988          49.400          48.400
 116025840.562 7  90409845.46446  22078996.586
  22078997.516          47.500          36.100
 125273885.451 6  97616051.98244  23838816.680
  23838816.980          41.900          24.700
 125789041.127 7  98017445.36644  23936856.320
  23936855.586          43.000          28.300
 108542738.380 7  84578785.81345  20654987.953
  20654989.754          44.300          34.400
 115185715.298 7  89755134.409 7  21919107.359    21919112.793
  21919112.473          46.600          46.900
 21  2  1  0 30 15.0000000  0 12G01G03G06G07G13G14G17G19G21G22G28G30
 110891407.261 7  86408967.695 8  21101927.836    21101932.836
  21101933.621          46.100          48.100
 127066696.150 6  99013032.687 6  24179985.539    24179992.852
  24179993.219          39.000          41.900
 126279020.693 6  98399272.761 7  24030097.359    24030104.734
  24030104.145          38.300          42.000
 126102853.773 6  98261984.857 6  23996571.563    23996574.258
  23996574.168          41.900          37.000
 129451230.011 6 100871185.47443  24633767.781
  24633771.344          38.900          18.600
 106476053.084 7  82968381.480 8  20261711.148    20261713.945
  20261714.270          47.300          53.700
 110224724.747 8  85889425.561 8  20975061.469    20975063.426
  20975063.375          49.500          48.900
 115990247.073 7  90382110.27746  22072223.406
  22072224.480          47.300          37.100
 125318720.104 6  97650988.05944  23847348.445
  23847349.156          41.900          26.900
 125772167.232 7  98004296.89244  23933644.586
  23933644.652          42.300          27.900
 108534054.305 7  84572019.01745  20653335.789
  20653336.926          45.300          35.100
 115228854.218 7  89788749.150 7  21927316.445    21927322.355
  21927322.238          46.200          46.700
 21  2  1  0 30 30.0000000  0 12G01G03G06G07G13G14G17G19G21G22G28G30
 110921046.938 7  86432063.548 8  21107567.977    21107572.918
  21107573.367          45.400          48.100
 127028509.093 6  98983276.632 7  24172717.664    24172726.613
  24172726.730          38.800          43.700
 126222449.494 6  98355191.317 6  24019332.094    24019339.418
  24019338.602          37.100          39.200
 126160026.693 7  98306535.189 6  24007450.852    24007453.211
  24007453.570          42.100          36.600
 129485121.062 6 100897594.03143  24640217.203
  24640220.789          38.000          19.600
 106475766.692 7  82968158.320 8  20261656.656    20261659.949
  20261660.188          47.700          53.800
 110212396.127 8  85879818.834 8  20972715.391    20972717.418
  20972717.762          48.800          48.200
 115954718.180 7  90354425.43646  22065462.078
  22065463.039          47.200          36.200
 125363602.670 7  97685961.48844  23855889.633
  23855890.480          44.300          26.700
 125755400.291 6  97991231.72744  23930455.336
  23930453.992          40.100          26.200
 108525433.349 7  84565301.39045  20651695.094
  20651696.301          45.400          35.500
 115272083.405 7  89822434.221 7  21935542.820    21935548.211
  21935547.660          43.700          46.300
 21  2  1  0 30 45.0000000  0 12G01G03G06G07G13G14G17G19G21G22G28G30
 110950822.420 7  86455265.212 7  21113234.031    21113239.379
  21113239.879          45.800          47.800
 126990375.010 6  98953561.771 7  24165461.375    24165469.438
  24165470.266          38.400          43.200
 126165908.767 6  98311133.596 6  24008573.273    24008579.684
  24008579.180          38.100          40.200
 126217218.558 7  98351100.257 5  24018334.477    24018336.777
  24018336.453          42.300          33.500
 129519072.782 6 100924049.90043  24646678.242
  24646682.273          37.800          19.300
 106475573.027 7  82968007.401 8  20261619.969    20261622.840
  20261622.902          46.600          53.700
 110200135.618 8  85870265.200 8  20970381.813    20970385.074
  20970385.188          49.400          49.300
 115919253.705 7  90326790.78746  22058713.672
  22058714.383          47.800          36.600
 125408532.661 7  97720971.89144  23864439.578
  23864440.281          44.500          28.200
 125738740.340 7  97978249.96744  23927284.352
  23927283.285          42.300          25.700
 108516875.468 7  84558632.90145  20650066.570
  20650067.973          46.700          35.600
 115315402.411 7  89856189.279 7  21943785.945    21943791.461
  21943791.430          45.700          47.200
 21  2  1  0 31  0.0000000  0 12G01G03G06G07G13G14G17G19G21G22G28G30
 110980733.603 7  86478572.623 8  21118926.234    21118931.297
  21118931.957          47.200          48.400
 126952294.614 5  98923888.790 7  24158215.180    24158222.914
  24158223.469          35.800          42.400
 126109398.915 6  98267099.995 6  23997819.484    23997826.758
  23997825.734          39.600          40.900
 126274429.272 6  98395680.045 5  24029220.977    24029223.277
  24029223.188          41.100          34.800
 129553085.221 6 100950553.12543  24653150.648
  24653154.621          38.300          18.600
 106475472.380 7  82967928.976 8  20261600.258    20261603.355
  20261603.344          46.700          53.000
 110187943.443 8  85860764.801 8  20968062.563    20968064.656
  20968064.910          49.500          48.800
 115883853.974 8  90299206.59546  22051976.922
  22051978.223          48.200          36.300
 125453510.042 7  97756019.21944  23872998.727
  23872999.457          45.700          28.200
 125722187.938 6  97965352.02244  23924133.594
  23924133.809          40.700          26.000
 108508380.959 7  84552013.79445  20648450.555
  20648451.766          46.100          35.400
 115358811.064 7  89890014.197 7  21952046.133    21952051.852
  21952051.270          45.500          45.600
 21  2  1  0 31 15.0000000  0 12G01G03G06G07G13G14G17G19G21G22G28G30
 111010779.966 7  86501985.376 8  21124644.016    21124648.797
  21124649.711          47.200          48.500
 126914268.078 6  98894257.793 7  24150979.008    24150986.852
  24150987.148          39.200          42.000
 126052920.143 6  98223090.538 6  23987071.547    23987078.426
  23987078.070          40.300          41.100
 126331658.344 6  98440274.202 5  24040111.359    24040113.805
  24040113.512          40.700          35.800
 129587157.924 6 100977103.28442  24659634.555
  24659638.082          37.300          16.300
 106475464.721 7  82967923.017 8  20261598.773    20261602.137
  20261602.273          44.700          53.300
 110175819.361 8  85851317.472 8  20965754.813    20965757.590
  20965757.672          49.600          49.100
 115848518.936 8  90271672.80046  22045253.203
  22045254.406          48.200          36.500
 125498534.294 7  97791103.05544  23881566.320
  23881567.461          44.300          28.400
 125705743.137 6  97952537.87944  23921005.586
  23921004.539          39.500          25.900
 108499949.753 7  84545444.01745  20646845.820
  20646846.980          46.100          35.400
 115402308.858 7  89923908.582 7  21960323.508    21960328.988
  21960328.750          44.800          47.300
 21  2  1  0 31 30.0000000  0 12G01G03G06G07G13G14G17G19G21G22G28G30
 111040961.374 7  86525503.360 7  21130387.328    21130392.215
  21130392.750          47.900          47.600
 126876295.930 6  98864669.127 7  24143752.570    24143761.063
  24143761.332          38.200          43.400
 125996472.863 6  98179105.649 6  23976330.641    23976336.848
  23976336.449          38.900          40.300
 126388905.527 6  98484882.351 6  24051004.867    24051008.258
  24051008.477          40.500          37.700
 129621290.588 6 101003700.13442  24666129.477
  24666132.703          38.000          17.800
 106475550.340 7  82967989.744 8  20261615.109    20261618.438
  20261618.563          47.100          53.900
 110163763.375 8  85841923.198 8  20963460.781    20963463.281
  20963463.254          48.800          48.800
 115813248.779 8  90244189.56146  22038541.461
  22038542.738          48.300          36.300
 125543605.149 7  97826223.18044  23890143.180
  23890144.730          45.300          29.000
 125689406.371 6  97939807.93644  23917895.391
  23917895.953          41.100          25.500
 108491582.307 7  84538923.92745  20645253.039
  20645254.816          44.900          35.500
 115445895.669 7  89957872.297 7  21968617.570    21968623.527
  21968623.203          44.600          46.000
 21  2  1  0 31 45.0000000  0 12G01G03G06G07G13G14G17G19G21G22G28G30
 111071277.425 7  86549126.257 7  21136156.125    21136161.320
  21136161.406          47.300          47.900
 126838378.437 6  98835123.036 6  24136536.664    24136544.852
  24136545.672          39.400          41.300
 125940057.410 6  98135145.563 6  23965594.883    23965601.320
  23965601.070          40.800          41.200
 126446170.240 6  98529504.168 6  24061901.992    24061905.379
  24061905.867          40.200          39.500
 129655482.737 6 101030343.39443  24672636.352
  24672639.434          38.500          18.600
 106475729.220 8  82968129.128 8  20261649.578    20261652.293
  20261652.641          48.400          53.900
 110151775.580 8  85832582.076 8  20961179.766    20961181.453
  20961181.672          49.300          48.600
 115778043.382 7  90216756.79046  22031841.531
  22031843.230          47.300          36.200
 125588722.195 7  97861379.32144  23898727.914
  23898729.762          44.500          28.500
 125673177.704 6  97927162.24044  23914807.664
  23914807.906          39.900          27.100
 108483278.506 7  84532453.44346  20643672.578
  20643674.738          45.600          36.100
 115489571.019 7  89991905.050 7  21976929.180    21976934.172
  21976934.309          45.300          46.700
 21  2  1  0 32  0.0000000  0 12G01G03G06G07G13G14G17G19G21G22G28G30
 111101727.664 7  86572853.721 8  21141951.148    21141955.781
  21141956.188          47.200          48.000
 126800515.894 6  98805619.719 6  24129333.078    24129339.992
  24129340.383          40.200          40.800
 125883673.742 6  98091210.254 7  23954865.156    23954872.590
  23954872.414          41.900          43.000
 126503452.157 6  98574139.396 6  24072802.617    24072805.430
  24072806.402          39.300          38.700
 129689733.881 6 101057032.57742  24679154.234
  24679156.762          38.900          17.400
 106476001.341 8  82968341.164 8  20261701.461    20261704.117
  20261704.367          48.700          53.200
 110139855.314 8  85823293.556 8  20958911.094    20958913.707
  20958913.957          48.500          48.700
 115742902.593 7  90189374.34746  22025155.016
  22025155.906          47.200          36.300
 125633885.386 7  97896571.40444  23907322.914
  23907323.582          43.400          27.300
 125657057.245 6  97914600.85744  23911739.781
  23911740.066          39.200          26.400
 108475038.457 7  84526032.62546  20642104.648
  20642106.707          45.700          36.600
 115533334.440 7  90026006.405 7  21985257.156    21985262.570
  21985262.227          45.000          45.800
 21  2  1  0 32 15.0000000  0 12G01G03G06G07G13G14G17G19G21G22G28G30
 111132312.151 8  86596685.789 8  21147770.531    21147775.531
  21147776.051          48.000          48.300
 126762709.070 7  98776159.927 6  24122138.281    24122145.801
  24122144.711          42.000          39.400
 125827322.632 6  98047300.302 7  23944141.922    23944148.906
  23944148.453          40.200          42.600
 126560751.265 6  98618788.068 6  24083706.234    24083709.027
  24083709.625          39.900          38.100
 129724043.840 6 101083767.57843  24685683.156
  24685685.777          37.100          18.300
 106476367.177 7  82968626.219 8  20261771.117    20261773.922
  20261774.145          47.200          52.800
 110128003.133 8  85814058.079 8  20956655.938    20956658.352
  20956658.715          49.100          49.600
 115707826.810 7  90162042.58445  22018480.531
  22018481.281          47.000          35.900
 125679094.385 7  97931799.20344  23915925.570
  23915926.375          43.100          27.400
 125641045.291 6  97902124.00944  23908692.922
  23908693.410          41.400          27.300
 108466862.514 7  84519661.76646  20640549.039
  20640551.188          46.000          36.900
 115577185.933 7  90060176.386 7  21993601.688    21993607.422
  21993606.871          44.900          45.400
 21  2  1  0 32 30.0000000  0 12G01G03G06G07G13G14G17G19G21G22G28G30
 111163030.192 7  86620621.948 8  21153616.172    21153620.832
  21153621.832          47.600          48.400
 126724958.038 6  98746743.574 6  24114954.453    24114962.297
  24114961.168          39.400          38.700
 125771004.067 6  98003415.729 7  23933425.539    23933432.191
  23933431.672          39.900          43.200
 126618066.977 6  98663449.661 6  24094613.266    24094617.168
  24094616.949          40.100          40.600
 129758412.168 6 101110548.09443  24692223.469
  24692226.461          38.800          19.300
 106476826.480 7  82968984.127 8  20261858.117    20261861.258
  20261861.523          47.000          53.400
 110116218.497 8  85804875.271 8  20954413.461    20954415.652
  20954415.406          48.800          48.700
 115672815.885 7  90134761.35346  22011817.734
  22011819.066          47.600          36.600
 125724348.637 7  97967062.25844  23924536.805
  23924538.570          42.900          28.100
 125625142.197 6  97889732.01744  23905665.828
  23905666.781          40.900          26.500
 108458750.697 7  84513340.88046  20639005.336
  20639008.039          46.600          38.400
 115621124.851 7  90094414.487 7  22001962.867    22001968.789
  22001968.617          45.800          46.400
 21  2  1  0 32 45.0000000  0 12G01G03G06G07G13G14G17G19G21G22G28G30
 111193881.665 7  86644662.062 8  21159486.961    21159492.152
  21159492.832          47.600          48.300
 126687263.293 6  98717371.064 6  24107781.977    24107788.371
  24107787.652          41.600          39.700
 125714718.327 6  97959556.767 6  23922713.922    23922721.102
  23922720.820          39.700          41.900
 126675398.946 6  98708123.857 6  24105523.109    24105525.988
  24105526.234          41.200          39.800
 129792838.612 6 101137373.87543  24698774.234
  24698777.961          39.800          19.000
 106477379.559 7  82969415.105 9  20261963.219    20261966.359
  20261966.445          47.800          54.000
 110104501.584 8  85795745.218 8  20952183.430    20952186.113
  20952186.156          48.400          49.000
 115637870.014 7  90107530.82146  22005167.516
  22005168.965          46.800          36.400
 125769648.323 7  98002360.71544  23933157.453
  23933158.668          43.800          28.200
 125609348.403 6  97877425.17344  23902660.617
  23902662.059          40.200          27.000
 108450703.265 7  84507070.15546  20637474.133
  20637476.172          47.600          39.100
 115665151.047 7  90128720.628 7  22010341.063    22010346.410
  22010346.359          45.800          46.400
 21  2  1  0 33  0.0000000  0 13G01G03G06G07G13G14G17G19G21G22G24G28
                                G30
 111224866.322 7  86668805.954 7  21165382.469    21165388.328
  21165388.434          45.200          47.200
 126649625.269 6  98688042.694 6  24100619.258    24100625.441
  24100625.121          40.600          40.700
 125658466.037 6  97915723.786 6  23912010.719    23912016.652
  23912016.793          39.200          41.900
 126732746.885 7  98752810.555 6  24116435.828    24116439.645
  24116440.008          42.300          39.000
 129827322.574 6 101164244.48643  24705335.773
  24705339.645          38.800          19.300
 106478026.591 8  82969919.273 8  20262086.688    20262089.637
  20262089.906          49.300          53.400
 110092852.316 8  85786667.856 8  20949967.281    20949969.602
  20949969.711          49.500          48.900
 115602989.336 7  90080351.06446  21998530.742
  21998531.473          46.300          36.300
 125814993.085 7  98037694.29944  23941786.273
  23941787.664          44.300          29.800
 125593664.054 6  97865203.60344  23899676.563
  23899677.852          40.000          27.000
 131304202.780 6 102314978.484 6  24986358.273    24986362.883
  24986362.961          38.000          39.900
 108442720.326 7  84500849.67746  20635955.109
  20635957.328          47.500          39.200
 115709264.172 7  90163094.491 7  22018735.492    22018740.914
  22018740.508          45.800          45.900
 21  2  1  0 33 15.0000000  0 13G01G03G06G07G13G14G17G19G21G22G24G28
                                G30
 111255983.678 7  86693053.235 7  21171304.023    21171309.703
  21171309.895          44.900          47.600
 126612044.287 6  98658758.844 6  24093468.750    24093474.316
  24093474.336          40.500          37.800
 125602247.208 6  97871916.920 6  23901311.953    23901318.832
  23901318.883          40.100          41.500
 126790110.482 6  98797509.447 6  24127352.180    24127355.270
  24127355.664          41.500          38.600
 129861863.636 6 101191159.60343  24711909.281
  24711912.711          39.000          19.900
 106478767.532 8  82970496.623 9  20262227.875    20262230.781
  20262231.004          49.200          54.500
 110081270.478 8  85777643.047 8  20947763.016    20947765.059
  20947765.355          49.700          48.800
 115568173.555 7  90053221.89446  21991905.172
  21991906.352          47.800          37.000
 125860382.410 7  98073062.56644  23950423.852
  23950425.672          43.500          28.500
 125578089.183 6  97853067.38344  23896711.805
  23896713.324          38.700          25.600
 131260056.409 6 102280578.741 6  24977956.734    24977961.914
  24977962.121          38.400          39.000
 108434801.852 8  84494679.42846  20634448.344
  20634450.363          48.300          39.400
 115753463.770 7  90197535.733 7  22027146.281    22027152.207
  22027151.879          47.000          47.200
 21  2  1  0 33 30.0000000  0 13G01G03G06G07G13G14G17G19G21G22G24G28
                                G30
 111287233.578 7  86717403.806 7  21177250.578    21177255.520
  21177256.238          45.100          47.800
 126574520.903 6  98629519.870 6  24086328.250    24086333.316
  24086333.613          41.900          37.700
 125546062.324 6  97828136.488 7  23890620.320    23890627.352
  23890627.055          40.000          42.500
 126847489.472 6  98842220.363 6  24138270.852    24138274.344
  24138274.840          41.100          39.700
 129896461.527 6 101218118.96443  24718492.750
  24718496.074          40.100          19.300
 106479602.625 7  82971147.349 9  20262386.938    20262389.898
  20262390.059          47.200          54.000
 110069756.185 8  85768670.887 7  20945571.719    20945573.852
  20945573.926          49.400          47.900
 115533423.010 8  90026143.55246  21985292.344
  21985293.602          48.000          37.600
 125905815.958 7  98108465.34244  23959069.703
  23959071.688          43.200          29.100
 125562624.188 6  97841016.72044  23893770.461
  23893770.379          37.900          26.200
 131215986.910 6 102246238.871 6  24969570.398    24969575.840
  24969575.414          36.500          38.600
 108426948.263 7  84488559.74746  20632954.070
  20632955.387          47.300          39.900
 115797749.677 7  90232044.250 7  22035573.813    22035579.090
  22035579.227          45.700          47.500
 21  2  1  0 33 45.0000000  0 13G01G03G06G07G13G14G17G19G21G22G24G28
                                G30
 111318615.560 7  86741857.294 7  21183222.172    21183227.758
  21183228.004          45.400          46.900
 126537055.293 7  98600325.963 5  24079198.344    24079203.855
  24079203.406          42.300          35.700
 125489911.455 6  97784382.582 7  23879934.164    23879942.160
  23879942.055          41.400          42.800
 126904883.253 6  98886942.796 6  24149192.281    24149195.293
  24149196.176          40.800          38.100
 129931115.764 6 101245122.26843  24725088.055
  24725090.719          38.800          19.900
 106480531.795 7  82971871.399 8  20262563.391    20262566.598
  20262566.695          46.100          53.800
 110058309.178 8  85759751.150 8  20943393.477    20943395.738
  20943396.066          48.700          49.500
 115498737.522 7  89999115.92346  21978691.484
  21978693.379          47.700          36.600
 125951293.438 7  98143902.34844  23967722.961
  23967725.238          42.200          28.300
 125547269.095 6  97829051.72644  23890848.594
  23890849.199          41.900          28.700
 131171994.076 5 102211958.775 6  24961199.727    24961204.660
  24961203.605          33.200          38.800
 108419159.426 7  84482490.52546  20631471.828
  20631473.406          47.000          39.500
 115842121.418 7  90266619.598 7  22044017.063    22044022.996
  22044022.902          45.200          46.300
 21  2  1  0 34  0.0000000  0 13G01G03G06G07G13G14G17G19G21G22G24G28
                                G30
 111350129.321 7  86766413.463 7  21189219.188    21189224.473
  21189224.988          44.900          47.300
 126499647.929 6  98571177.335 6  24072079.617    24072084.453
  24072084.273          41.300          36.700
 125433794.991 6  97740655.454 7  23869256.656    23869263.121
  23869263.156          41.900          42.400
 126962291.495 6  98931676.456 6  24160116.633    24160120.602
  24160120.711          38.200          38.100
 129965825.998 6 101272169.20543  24731693.070
  24731696.117          40.300          19.000
 106481555.229 7  82972668.871 8  20262758.180    20262761.004
  20262761.102          47.100          53.200
 110046929.375 8  85750883.766 8  20941228.219    20941230.805
  20941231.023          50.200          49.500
 115464117.312 7  89972139.13446  21972104.273
  21972105.270          47.800          36.400
 125996814.761 7  98179373.47544  23976386.109
  23976387.922          42.600          28.300
 125532024.197 7  97817172.61944  23887946.750
  23887948.461          42.000          28.900
 131128078.506 5 102177738.877 6  24952846.016    24952848.242
  24952847.242          31.600          40.200
 108411435.543 7  84476471.90546  20630002.008
  20630003.492          46.700          39.500
 115886578.662 7  90301261.599 7  22052477.508    22052482.871
  22052483.059          47.000          46.900
 21  2  1  0 34 15.0000000  0 12G01G03G06G07G13G14G17G19G21G22G28G30
 111381774.587 7  86791072.110 7  21195241.453    21195246.332
  21195246.441          45.300          47.200
 126462299.297 6  98542074.453 5  24064972.664    24064978.652
  24064977.777          40.400          35.200
 125377713.333 7  97696955.480 7  23858584.695    23858591.215
  23858590.883          42.000          42.600
 127019714.177 6  98976421.387 6  24171044.078    24171046.777
  24171047.566          39.900          38.100
 130000591.993 6 101299259.59343  24738308.797
  24738311.957          39.200          19.900
 106482673.109 7  82973539.935 8  20262971.164    20262973.793
  20262973.738          47.800          53.400
 110035617.017 8  85742068.928 8  20939075.344    20939078.176
  20939078.375          49.600          50.200
 115429562.317 8  89945213.17046  21965528.453
  21965529.516          48.800          36.900
 126042379.538 6  98214878.50644  23985056.586
  23985058.184          39.500          26.700
 125516889.834 6  97805379.65344  23885066.539
  23885067.730          41.000          27.900
 108403776.789 7  84470504.06246  20628544.305
  20628546.496          45.500          38.300
 115931121.087 7  90335969.966 7  22060953.602    22060959.113
  22060959.086          45.600          47.500
 21  2  1  0 34 30.0000000  0 12G01G03G06G07G13G14G17G19G21G22G28G30
 111413551.054 7  86815832.993 7  21201288.781    21201293.613
  21201293.781          45.300          46.700
 126425009.737 6  98513017.786 5  24057876.352    24057883.391
  24057880.930          39.000          35.400
 125321666.751 6  97653282.818 7  23847919.234    23847925.605
  23847925.508          41.400          42.200
 127077150.796 6  99021177.198 6  24181972.820    24181976.328
  24181977.219          39.800          38.300
 130035413.289 6 101326393.07043  24744934.641
  24744938.266          40.500          19.300
 106483885.550 7  82974484.684 8  20263202.047    20263204.605
  20263204.582          47.900          53.000
 110024371.845 8  85733306.458 8  20936935.250    20936938.426
  20936938.598          49.600          48.900
 115395072.631 7  89918338.09146  21958964.898
  21958965.934          47.800          36.500
 126087987.614 6  98250417.27544  23993734.938
  23993736.617          39.600          25.800
 125501866.247 6  97793672.94344  23882208.484
  23882209.125          39.800          27.200
 108396183.432 7  84464587.16746  20627099.086
  20627101.023          46.700          39.200
 115975748.417 7  90370744.526 7  22069445.781    22069451.121
  22069451.035          45.200          46.800
 21  2  1  0 34 45.0000000  0 12G01G03G06G07G13G14G17G19G21G22G28G30
 111445458.228 7  86840695.720 7  21207360.188    21207365.262
  21207365.254          45.600          47.400
 126387779.431 6  98484007.169 6  24050791.031    24050797.465
  24050796.223          39.400          37.900
 125265655.285 6  97609637.570 6  23837260.141    23837267.063
  23837266.957          39.900          41.500
 127134600.879 6  99065943.498 6  24192906.633    24192909.246
  24192909.395          39.900          36.800
 130070289.416 6 101353569.25643  24751571.688
  24751573.762          40.200          19.900
 106485192.448 7  82975503.039 8  20263450.555    20263452.801
  20263452.832          47.300          53.800
 110013193.246 8  85724595.884 8  20934808.250    20934810.176
  20934810.516          49.300          49.700
 115360648.164 8  89891513.84345  21952414.398
  21952415.316          48.200          35.900
 126133638.456 6  98285989.34444  24002421.922
  24002423.609          41.800          25.800
 125486953.477 7  97782052.60044  23879370.273
  23879372.008          42.200          28.100
 108388655.307 7  84458721.10846  20625666.797
  20625668.707          47.000          39.800
 116020460.100 7  90405584.791 7  22077953.477    22077959.926
  22077959.578          45.700          46.800
 21  2  1  0 35  0.0000000  0 13G01G03G06G07G13G14G17G19G21G22G24G28
                                G30
 111477496.065 7  86865660.273 7  21213456.438    21213461.938
  21213462.078          45.100          46.600
 126350609.105 6  98455043.271 6  24043717.453    24043724.520
  24043723.430          39.500          37.800
 125209679.625 6  97566020.147 7  23826608.414    23826615.586
  23826615.191          38.600          42.200
 127192064.333 6  99110720.204 6  24203841.016    24203844.395
  24203844.207          41.100          36.700
 130105220.236 6 101380788.10743  24758218.711
  24758221.438          38.100          18.300
 106486594.190 7  82976595.321 9  20263717.000    20263720.023
  20263720.184          46.100          54.000
 110002081.615 8  85715937.486 8  20932693.711    20932696.473
  20932696.941          49.300          50.200
 115326289.305 7  89864740.69646  21945876.133
  21945877.422          47.800          36.800
 126179332.080 6  98321594.75744  24011117.609
  24011119.609          41.300          25.900
 125472151.944 6  97770518.95244  23876554.328
  23876554.875          41.200          26.200
 130953106.458 6 102041469.334 6  24919563.188    24919569.539
  24919570.527          36.000          36.400
 108381192.877 7  84452906.22146  20624246.711
  20624248.207          47.600          39.400
 116065256.079 7  90440490.716 7  22086478.117    22086484.230
  22086484.074          44.200          47.700
 21  2  1  0 35 15.0000000  0 13G01G03G06G07G13G14G17G19G21G22G24G28
                                G30
 111509664.187 7  86890726.351 7  21219577.883    21219583.375
  21219584.008          45.300          47.300
 126313499.133 6  98426126.423 6  24036655.516    24036662.516
  24036661.922          37.300          38.100
 125153740.001 6  97522430.840 6  23815962.859    23815970.676
  23815970.258          38.800          41.600
 127249540.593 7  99155506.900 6  24214778.539    24214781.918
  24214782.012          42.100          37.900
 130140205.165 6 101408049.05243  24764876.414
  24764878.887          39.400          18.600
 106488090.857 7  82977761.566 8  20264001.664    20264005.082
  20264005.246          46.700          53.500
 109991036.875 8  85707331.193 8  20930592.016    20930594.816
  20930595.309          49.400          49.600
 115291995.944 7  89838018.59046  21939350.758
  21939351.410          47.800          37.200
 126225068.154 6  98357233.29244  24019820.305
  24019822.348          41.100          25.800
 125457461.855 6  97759072.16244  23873758.500
  23873758.215          40.400          26.400
 130909580.862 6 102007553.291 5  24911280.398    24911288.309
  24911288.785          38.100          33.400
 108373796.338 7  84447142.67846  20622839.836
  20622840.781          47.500          39.700
 116110135.976 7  90475462.041 7  22095018.453    22095024.609
  22095024.629          45.200          46.800
 21  2  1  0 35 30.0000000  0 13G01G03G06G07G13G14G17G19G21G22G24G28
                                G30
 111541962.190 7  86915893.634 8  21225724.328    21225729.340
  21225730.117          45.200          48.000
 126276449.836 6  98397256.856 6  24029606.141    24029613.199
  24029612.973          37.900          40.200
 125097836.555 6  97478869.737 6  23805326.078    23805332.141
  23805331.645          39.800          40.600
 127307029.455 6  99200303.374 6  24225718.117    24225721.508
  24225721.652          40.500          38.800
 130175243.766 6 101435351.85543  24771543.773
  24771547.023          40.400          18.300
 106489682.486 7  82979001.796 8  20264304.531    20264307.863
  20264308.031          47.700          53.300
 109980058.939 8  85698776.956 8  20928502.758    20928505.273
  20928505.625          48.600          49.500
 115257767.990 8  89811347.48446  21932836.523
  21932838.438          48.600          37.300
 126270846.244 7  98392904.51844  24028532.141
  24028533.250          43.000          26.000
 125442883.289 7  97747712.28044  23870983.945
  23870984.285          42.700          26.000
 130866134.545 6 101973698.918 5  24903013.203    24903018.941
  24903019.547          39.600          34.000
 108366465.650 7  84441430.45446  20621444.813
  20621446.383          47.500          40.000
 116155099.393 7  90510498.485 7  22103575.625    22103580.539
  22103580.766          45.400          47.200
 21  2  1  0 35 45.0000000  0 13G01G03G06G07G13G14G17G19G21G22G24G28
                                G30
 111574389.772 7  86941161.874 7  21231894.883    21231900.211
  21231900.770          44.600          47.900
 126239461.524 6  98368434.858 7  24022566.984    24022574.199
  24022574.211          39.600          42.000
 125041969.731 6  97435337.152 6  23794694.859    23794701.176
  23794700.684          41.100          41.600
 127364530.474 6  99245109.346 6  24236660.984    24236663.641
  24236664.113          41.400          39.400
 130210335.850 6 101462696.34543  24778221.781
  24778224.867          39.400          18.300
 106491369.208 7  82980316.102 8  20264625.719    20264628.656
  20264628.766          46.500          52.900
 109969147.816 7  85690274.782 8  20926426.320    20926429.066
  20926428.910          47.700          48.500
 115223605.537 7  89784727.40446  21926335.750
  21926337.027          46.500          36.800
 126316666.027 7  98428608.22644  24037251.570
  24037253.168          42.600          26.900
 125428416.582 6  97736439.52944  23868230.773
  23868231.770          41.700          28.300
 130822767.473 6 101939906.386 5  24894761.211    24894766.234
  24894767.672          39.900          35.700
 108359200.970 7  84435769.65946  20620062.250
  20620063.563          47.900          39.500
 116200145.951 7  90545599.676 7  22112146.984    22112152.465
  22112152.121          45.100          45.900
 21  2  1  0 36  0.0000000  0 13G01G03G06G07G13G14G17G19G21G22G24G28
                                G30
 111606946.693 7  86966530.887 7  21238090.500    21238095.234
  21238095.668          45.500          47.600
 126202534.814 6  98339660.864 7  24015540.164    24015547.492
  24015547.492          40.900          42.300
 124986139.862 6  97391833.423 7  23784070.938    23784077.461
  23784077.098          40.900          42.800
 127422043.429 7  99289924.629 6  24247604.680    24247608.359
  24247608.441          42.000          39.400
 130245481.053 6 101490082.22343  24784909.344
  24784912.453          39.000          18.300
 106493151.158 7  82981704.625 8  20264964.984    20264967.898
  20264967.906          46.300          53.600
 109958303.405 8  85681824.582 8  20924363.016    20924365.488
  20924365.477          48.000          48.200
 115189508.644 7  89758158.40246  21919847.375
  21919848.672          47.100          36.900
 126362527.480 7  98464344.43344  24045979.102
  24045979.988          43.000          26.700
 125414062.077 6  97725254.20444  23865499.773
  23865500.871          41.200          27.400
 130779480.093 6 101906175.948 6  24886523.266    24886529.199
  24886529.641          39.700          37.900
 108352002.571 7  84430160.51946  20618692.500
  20618693.590          47.500          39.300
 116245275.429 7  90580765.511 7  22120734.930    22120740.348
  22120740.234          46.200          46.300
 21  2  1  0 36 15.0000000  0 13G01G03G06G07G13G14G17G19G21G22G24G28
                                G30
 111639632.395 7  86992000.273 7  21244311.023    21244315.195
  21244315.785          45.300          47.000
 126165669.800 6  98310934.850 7  24008526.211    24008532.422
  24008532.621          41.600          42.700
 124930346.989 7  97348358.422 7  23773453.672    23773459.742
  23773459.961          42.600          43.900
 127479567.740 6  99334748.772 6  24258551.023    24258554.234
  24258554.758          40.500          38.400
 130280678.625 6 101517508.87642  24791607.430
  24791610.527          41.200          17.800
 106495028.268 7  82983167.316 8  20265321.969    20265324.820
  20265324.902          45.600          53.500
 109947525.338 8  85673426.096 8  20922312.086    20922314.355
  20922314.250          48.100          48.300
 115155477.208 7  89731640.41846  21913371.367
  21913372.785          47.800          36.100
 126408429.883 6  98500112.57344  24054713.234
  24054715.348          41.900          27.400
 125399819.806 6  97714156.34244  23862788.805
  23862789.992          40.600          25.600
 130736272.762 6 101872507.865 6  24878300.195    24878306.477
  24878306.355          39.400          40.500
 108344870.402 7  84424602.98746  20617334.773
  20617336.273          47.200          39.000
 116290487.257 7  90615995.492 7  22129338.594    22129344.684
  22129344.285          45.800          46.700
 21  2  1  0 36 30.0000000  0 13G01G03G06G07G13G14G17G19G21G22G24G28
                                G30
 111672446.703 7  87017569.881 7  21250554.742    21250559.258
  21250559.793          45.400          47.300
 126128867.020 6  98282257.405 6  24001521.531    24001529.367
  24001529.113          39.500          41.700
 124874591.602 7  97304912.713 7  23762843.461    23762849.688
  23762849.527          42.000          42.400
 127537103.324 6  99379581.668 6  24269499.586    24269502.984
  24269503.746          39.900          39.900
 130315928.424 6 101544976.25043  24798315.164
  24798318.418          39.400          19.300
 106497000.778 7  82984704.344 9  20265697.008    20265700.398
  20265700.496          46.600          54.600
 109936813.688 8  85665079.372 8  20920273.930    20920276.129
  20920276.121          48.500          48.500
 115121511.588 7  89705173.72246  21906907.891
  21906908.813          47.700          36.800
 126454373.191 7  98535912.54844  24063456.250
  24063458.574          43.000          27.500
 125385690.102 6  97703146.19444  23860099.906
  23860100.223          39.200          24.700
 130693145.348 6 101838902.088 6  24870093.297    24870099.211
  24870099.410          38.800          40.400
 108337804.793 7  84419097.30646  20615990.430
  20615991.816          47.400          39.000
 116335781.203 7  90651289.482 7  22137957.328    22137962.906
  22137963.094          45.400          46.500
 21  2  1  0 36 45.0000000  0 13G01G03G06G07G13G14G17G19G21G22G24G28
                                G30
 111705389.421 7  87043239.556 7  21256823.367    21256828.594
  21256828.938          46.200          47.300
 126092127.002 6  98253628.831 7  23994530.672    23994537.926
  23994538.039          41.100          43.600
 124818874.076 6  97261496.436 7  23752241.219    23752247.289
  23752247.074          41.800          42.400
 127594649.749 6  99424423.012 6  24280450.305    24280453.855
  24280454.727          40.200          39.000
 130351230.266 6 101572484.20342  24805033.586
  24805036.484          37.400          17.800
 106499068.971 7  82986315.932 8  20266090.672    20266093.887
  20266094.266          47.200          53.800
 109926168.647 8  85656784.542 8  20918248.070    20918250.848
  20918250.492          48.000          48.000
 115087611.839 7  89678758.32546  21900457.328
  21900458.531          46.400          36.900
 126500357.333 7  98571744.34244  24072206.977
  24072208.602          42.600          28.200
 125371673.190 6  97692223.91244  23857433.805
  23857432.953          39.600          25.400
 130650099.098 6 101805359.578 6  24861901.633    24861907.828
  24861907.609          38.500          41.800
 108330805.927 7  84413643.64146  20614658.281
  20614659.695          46.200          38.800
 116381157.146 7  90686647.331 7  22146592.914    22146597.301
  22146597.770          44.700          45.100
 21  2  1  0 37  0.0000000  0 13G01G03G06G07G13G14G17G19G21G22G24G28
                                G30
 111738459.999 7  87069008.845 7  21263116.344    21263121.465
  21263121.684          46.500          46.600
 126055449.997 6  98225049.353 7  23987551.836    23987558.406
  23987558.684          39.400          43.100
 124763194.574 7  97218109.815 7  23741645.883    23741651.941
  23741651.320          42.300          42.000
 127652206.444 6  99469272.372 6  24291402.063    24291406.637
  24291406.910          39.600          38.100
 130386583.499 6 101600032.16742  24811760.531
  24811763.969          39.400          17.800
 106501232.662 7  82988001.925 8  20266502.555    20266505.656
  20266505.922          47.300          53.200
 109915589.840 8  85648541.319 8  20916234.734    20916237.355
  20916237.039          48.500          48.800
 115053777.777 7  89652394.11546  21894018.797
  21894019.676          47.400          36.500
 126546381.655 6  98607607.44044  24080964.570
  24080966.055          41.800          26.600
 125357769.216 6  97681389.64844  23854787.328
  23854786.637          40.800          25.100
 130607133.501 6 101771879.897 6  24853726.359    24853731.777
  24853731.656          38.400          41.900
 108323873.758 7  84408241.96146  20613339.156
  20613340.707          46.700          38.100
 116426614.455 7  90722068.625 7  22155243.016    22155248.133
  22155247.902          45.300          46.300
 21  2  1  0 37 15.0000000  0 13G01G03G06G07G13G14G17G19G21G22G24G28
                                G30
 111771658.099 7  87094877.488 7  21269433.570    21269439.305
  21269439.816          45.700          47.100
 126018836.204 6  98196519.152 7  23980583.617    23980590.789
  23980590.434          38.800          42.600
 124707553.315 6  97174752.982 6  23731056.938    23731063.563
  23731062.844          40.200          41.800
 127709773.557 6  99514129.848 6  24302358.164    24302361.215
  24302361.383          39.900          37.700
 130421987.783 6 101627619.89942  24818497.070
  24818500.426          39.300          16.900
 106503491.990 7  82989762.420 8  20266932.930    20266935.637
  20266935.988          46.200          53.700
 109905077.142 8  85640349.614 8  20914234.648    20914236.758
  20914236.844          49.300          48.800
 115020009.375 7  89626081.06046  21887593.031
  21887593.762          47.500          36.900
 126592445.977 6  98643501.70744  24089730.727
  24089731.398          40.500          26.200
 125343978.355 6  97670643.52844  23852162.813
  23852162.602          40.700          26.600
 130564248.728 6 101738463.203 7  24845564.953    24845571.000
  24845570.883          37.500          43.000
 108317008.292 7  84402892.26046  20612033.070
  20612034.242          46.500          38.600
 116472152.746 7  90757553.006 7  22163908.688    22163914.141
  22163913.766          45.800          46.600
 21  2  1  0 37 30.0000000  0 13G01G03G06G07G13G14G17G19G21G22G24G28
                                G30
 111804983.520 7  87120845.333 8  21275775.242    21275781.090
  21275781.656          44.400          48.000
 125982286.343 6  98168038.763 6  23973629.156    23973635.641
  23973634.941          41.500          41.900
 124651950.711 6  97131426.283 7  23720475.969    23720483.188
  23720482.336          39.900          42.100
 127767350.624 6  99558995.101 6  24313314.523    24313318.281
  24313318.211          41.100          37.400
 130457442.777 6 101655247.15342  24825243.422
  24825246.773          37.100          16.900
 106505847.173 7  82991597.618 8  20267380.930    20267384.012
  20267384.328          47.200          53.700
 109894630.656 8  85632209.492 8  20912246.492    20912248.723
  20912249.035          49.300          48.800
 114986306.752 8  89599819.29246  21881179.320
  21881180.512          48.000          37.200
 126638550.136 6  98679427.04044  24098504.141
  24098504.832          41.500          26.700
 125330300.898 7  97659985.76344  23849560.969
  23849560.070          42.300          26.200
 130521445.541 5 101705110.104 6  24837420.297    24837425.648
  24837425.668          35.400          41.900
 108310209.911 7  84397594.81446  20610739.047
  20610741.129          46.800          39.400
 116517771.816 7  90793100.318 7  22172588.695    22172595.316
  22172594.621          45.400          43.700
 21  2  1  0 37 45.0000000  0 13G01G03G06G07G13G14G17G19G21G22G24G28
                                G30
 111838436.184 7  87146912.346 8  21282140.422    21282147.176
  21282147.543          43.400          48.500
 125945800.967 6  98139608.601 6  23966684.797    23966692.551
  23966692.168          39.800          41.500
 124596387.377 6  97088130.206 7  23709902.555    23709909.867
  23709909.203          39.700          42.400
 127824937.281 6  99603867.764 6  24324273.063    24324276.684
  24324276.957          41.100          38.600
 130492948.318 6 101682913.81942  24832001.586
  24832003.297          37.600          16.900
 106508298.544 7  82993507.797 8  20267847.141    20267850.336
  20267850.387          46.300          53.800
 109884250.535 8  85624121.095 8  20910271.047    20910273.316
  20910273.969          49.200          49.100
 114952670.351 7  89573609.12146  21874779.211
  21874779.695          47.000          36.700
 126684694.171 6  98715383.44844  24107284.258
  24107286.371          41.100          25.500
 125316737.222 7  97649416.69544  23846979.578
  23846978.254          42.800          25.900
 130478724.486 5 101671821.047 6  24829287.844    24829296.777
  24829295.922          31.200          39.800
 108303478.946 7  84392349.91346  20609458.227
  20609460.121          47.300          39.300
 116563471.673 7  90828710.581 7  22181285.711    22181291.227
  22181291.094          45.300          46.300
 21  2  1  0 38  0.0000000  0 13G01G03G06G07G13G14G17G19G21G22G24G28
                                G30
 111872015.262 7  87173077.862 8  21288530.523    21288536.645
  21288537.219          43.400          48.100
 125909379.949 6  98111228.616 6  23959754.875    23959762.309
  23959762.195          40.500          41.300
 124540862.981 6  97044864.498 7  23699336.164    23699343.992
  23699343.359          38.800          43.600
 127882532.834 6  99648747.422 6  24335233.375    24335236.320
  24335236.984          40.500          36.100
 130528503.541 6 101710619.16242  24838766.133
  24838769.898          38.600          16.300
 106510845.731 7  82995492.624 8  20268331.750    20268334.781
  20268334.789          46.000          53.900
 109873936.150 8  85616083.910 8  20908308.563    20908310.742
  20908311.176          48.600          48.700
 114919099.614 7  89547450.09846  21868390.438
  21868391.586          47.100          37.100
 126730877.074 6  98751370.14044  24116072.883
  24116074.750          41.700          26.600
 125303287.182 7  97638936.17244  23844419.758
  23844417.984          42.200          26.200
 130436085.569 5 101638595.953 6  24821175.477    24821181.965
  24821181.109          33.700          41.100
 108296815.079 7  84387157.29646  20608190.172
  20608191.879          47.500          39.500
 116609251.341 7  90864383.050 7  22189997.367    22190002.703
  22190002.617          45.800          46.100
 21  2  1  0 38 15.0000000  0 13G01G03G06G07G13G14G17G19G21G22G24G28
                                G30
 111905720.722 7  87199341.851 8  21294945.070    21294950.500
  21294951.375          43.900          48.500
 125873024.060 6  98082899.324 7  23952837.297    23952843.109
  23952842.953          41.400          43.000
 124485378.265 6  97001629.706 7  23688778.508    23688785.656
  23688785.406          39.900          44.200
 127940137.297 6  99693634.029 6  24346195.031    24346198.004
  24346198.223          40.400          36.100
 130564108.415 6 101738363.28042  24845542.445
  24845545.539          37.700          16.900
 106513489.155 7  82997552.443 8  20268835.094    20268837.902
  20268838.227          46.500          53.000
 109863687.668 8  85608098.083 8  20906358.430    20906360.566
  20906360.563          48.700          48.000
 114885594.973 7  89521342.60846  21862014.828
  21862016.043          47.500          37.500
 126777099.093 6  98787387.31244  24124868.477
  24124870.336          41.300          24.600
 125289951.311 7  97628544.60644  23841882.047
  23841880.164          42.100          26.500
 130393528.969 5 101605434.973 6  24813077.469    24813083.305
  24813082.883          35.800          40.200
 108290218.838 7  84382017.37146  20606934.672
  20606936.953          47.300          39.700
 116655110.809 7  90900117.709 7  22198723.750    22198729.586
  22198729.180          45.500          44.600
 21  2  1  0 38 30.0000000  0 13G01G03G06G07G13G14G17G19G21G22G24G28
                                G30
 111939552.020 7  87225703.878 7  21301382.883    21301388.945
  21301389.734          44.600          47.700
 125836733.474 6  98054620.943 6  23945931.227    23945937.422
  23945937.328          38.800          40.400
 124429933.358 6  96958425.927 7  23678226.836    23678234.613
  23678234.457          41.800          43.600
 127997750.047 6  99738527.086 6  24357157.766    24357160.645
  24357161.449          41.800          36.500
 130599762.565 6 101766145.69043  24852326.633
  24852330.172          38.800          18.300
 106516228.727 7  82999687.156 8  20269356.273    20269359.102
  20269359.473          47.400          53.500
 109853504.924 8  85600163.486 8  20904420.406    20904423.109
  20904423.063          49.100          48.800
 114852156.271 7  89495286.48446  21855651.039
  21855652.434          46.500          36.800
 126823359.718 6  98823434.52644  24133671.852
  24133673.336          41.500          25.300
 125276729.555 6  97618241.93844  23839366.328
  23839365.109          41.000          26.300
 130351055.179 6 101572338.550 6  24804996.445    24805001.590
  24805000.844          36.500          39.100
 108283690.157 8  84376930.08446  20605692.344
  20605694.219          48.000          38.100
 116701049.605 7  90935914.175 7  22207465.367    22207471.461
  22207471.285          45.500          45.400
 21  2  1  0 38 45.0000000  0 13G01G03G06G07G13G14G17G19G21G22G24G28
                                G30
 111973508.922 7  87252163.798 8  21307844.898    21307850.016
  21307850.742          45.000          48.000
 125800508.589 6  98026393.841 7  23939037.055    23939044.148
  23939043.789          41.300          42.200
 124374528.571 6  96915253.377 7  23667684.766    23667691.324
  23667691.145          41.800          44.300
 128055370.886 6  99783426.424 6  24368123.125    24368126.910
  24368126.918          41.800          36.600
 130635465.346 6 101793966.05742  24859120.883
  24859123.672          38.600          16.900
 106519064.632 7  83001896.942 8  20269896.023    20269899.016
  20269899.262          47.600          53.700
 109843387.808 8  85592280.019 8  20902495.508    20902497.949
  20902497.512          48.600          49.000
 114818783.636 7  89469281.83346  21849301.430
  21849302.070          47.600          37.000
 126869658.586 7  98859511.55144  24142482.500
  24142484.555          42.000          26.000
 125263622.253 6  97608028.43744  23836871.664
  23836871.332          41.800          25.300
 130308664.460 6 101539306.853 6  24796929.102    24796934.750
  24796934.555          36.900          40.300
 108277228.984 7  84371895.39346  20604463.234
  20604464.531          47.500          39.000
 116747067.428 7  90971772.170 7  22216222.828    22216228.793
  22216228.211          45.200          45.700
 21  2  1  0 39  0.0000000  0 13G01G03G06G07G13G14G17G19G21G22G24G28
                                G30
 112007591.256 7  87278721.463 7  21314330.813    21314336.273
  21314337.043          46.100          47.300
 125764350.050 6  97998218.329 6  23932156.602    23932162.160
  23932163.539          38.700          40.200
 124319164.375 7  96872112.456 7  23657149.305    23657155.402
  23657155.172          43.500          42.600
 128112999.777 7  99828331.999 6  24379089.336    24379093.367
  24379093.207          42.300          36.800
 130671216.550 6 101821824.14142  24865923.813
  24865927.418          37.900          16.900
 106521997.090 7  83004181.972 8  20270454.195    20270457.102
  20270457.316          46.400          53.800
 109833336.466 8  85584447.803 8  20900582.531    20900584.984
  20900584.664          48.600          48.900
 114785477.082 7  89443328.68746  21842962.773
  21842964.172          46.800          38.000
 126915995.641 7  98895618.38144  24151299.500
  24151301.656          42.300          26.500
 125250629.820 6  97597904.45444  23834399.156
  23834398.566          39.700          26.100
 130266357.047 6 101506340.064 6  24788878.445    24788883.938
  24788884.266          37.800          41.300
 108270835.939 7  84366913.78946  20603246.523
  20603248.098          47.200          39.000
 116793164.075 7  91007691.624 7  22224995.320    22224999.961
  22225000.117          44.300          45.600
 21  2  1  0 39 15.0000000  0 13G01G03G06G07G13G14G17G19G21G22G24G28
                                G30
 112041798.562 7  87305376.500 7  21320840.148    21320845.305
  21320846.008          46.700          47.100
 125728258.165 6  97970094.793 6  23925288.672    23925294.379
  23925295.031          37.300          39.500
 124263840.919 7  96829003.237 6  23646621.719    23646627.992
  23646627.254          42.800          40.600
 128170636.105 7  99873243.431 6  24390057.859    24390061.438
  24390061.516          42.100          37.500
 130707015.845 6 101849719.68643  24872736.711
  24872739.973          36.800          18.300
 106525026.117 7  83006542.270 9  20271030.359    20271033.645
  20271033.625          45.300          54.300
 109823350.632 8  85576666.647 8  20898682.016    20898684.406
  20898684.410          48.100          48.300
 114752236.595 7  89417427.03346  21836636.977
  21836639.137          47.300          37.100
 126962370.545 6  98931754.65044  24160124.602
  24160126.742          41.600          26.500
 125237752.210 7  97587869.95744  23831949.313
  23831947.051          42.000          25.800
 130224133.239 6 101473438.417 6  24780843.883    24780849.133
  24780849.988          37.300          40.300
 108264510.995 7  84361985.25546  20602043.297
  20602044.602          46.000          38.700
 116839339.065 7  91043672.125 7  22233781.594    22233787.258
  22233787.164          45.100          46.300
 21  2  1  0 39 30.0000000  0 13G01G03G06G07G13G14G17G19G21G22G24G28
                                G30
 112076130.300 7  87332128.503 7  21327373.617    21327378.168
  21327378.855          47.300          47.300
 125692232.955 6  97942023.242 6  23918433.070    23918438.668
  23918438.949          38.600          38.500
 124208558.351 7  96785925.945 6  23636101.383    23636108.082
  23636107.254          42.200          40.100
 128228279.445 6  99918160.332 6  24401026.719    24401029.992
  24401030.133          41.100          39.800
 130742862.607 6 101877652.21642  24879558.711
  24879561.055          37.600          16.900
 106528151.584 7  83008977.710 8  20271625.344    20271627.992
  20271628.047          47.100          53.000
 109813430.237 8  85568936.474 8  20896794.398    20896796.980
  20896796.992          48.900          49.600
 114719062.130 7  89391576.80346  21830324.594
  21830325.664          47.000          37.400
 127008783.073 6  98967920.23744  24168956.867
  24168958.535          41.600          26.500
 125224989.459 7  97577924.99644  23829519.727
  23829518.602          42.600          26.200
 130181993.606 6 101440602.406 6  24772824.617    24772830.125
  24772831.016          39.300          38.700
 108258254.060 7  84357109.72346  20600852.266
  20600854.082          46.000          38.600
 116885591.863 7  91079713.287 7  22242583.359    22242589.051
  22242588.883          45.600          46.300
 21  2  1  0 39 45.0000000  0 13G01G03G06G07G13G14G17G19G21G22G24G28
                                G30
 112110586.528 7  87358977.533 7  21333930.055    21333934.793
  21333935.508          46.200          46.300
 125656275.325 6  97914004.382 6  23911589.828    23911596.355
  23911596.063          37.100          37.600
 124153317.283 6  96742880.979 6  23625589.617    23625595.188
  23625594.113          40.400          40.900
 128285929.737 6  99963082.619 6  24411997.438    24412001.012
  24412001.363          40.600          38.900
 130778756.732 6 101905621.66242  24886388.695
  24886391.980          37.100          17.400
 106531374.036 8  83011488.697 8  20272238.641    20272241.008
  20272241.141          48.100          52.500
 109803575.466 8  85561257.431 8  20894919.445    20894921.762
  20894922.051          48.400          49.800
 114685954.188 8  89365778.42246  21824024.063
  21824025.664          48.400          37.800
 127055232.978 7  99004114.97344  24177796.133
  24177797.527          42.000          26.200
 125212342.247 6  97568070.04944  23827113.969
  23827112.203          40.600          24.900
 130139938.410 6 101407832.131 6  24764821.375    24764827.477
  24764828.246          37.600          38.300
 108252065.664 7  84352287.59446  20599674.516
  20599676.102          46.300          38.800
 116931922.518 7  91115815.079 7  22251399.781    22251405.180
  22251405.270          45.400          46.600
 21  2  1  0 40  0.0000000  0 13G01G03G06G07G13G14G17G19G21G22G24G28
                                G30
 112145166.534 7  87385923.002 7  21340510.281    21340515.082
  21340515.844          46.000          46.300
 125620385.281 6  97886038.067 6  23904761.102    23904766.328
  23904765.586          37.600          36.100
 124098117.734 6  96699868.288 6  23615084.672    23615091.473
  23615090.742          41.600          41.400
 128343586.326 6 100008009.774 6  24422968.484    24422972.465
  24422972.578          39.800          39.900
 130814697.542 6 101933627.51542  24893227.828
  24893231.215          36.900          16.900
 106534693.198 7  83014075.031 8  20272870.102    20272873.176
  20272873.352          47.200          53.700
 109793785.726 8  85553629.065 8  20893056.617    20893058.633
  20893058.887          49.300          49.100
 114652912.327 7  89340031.51746  21817736.250
  21817737.563          47.600          37.700
 127101719.763 7  99040338.42644  24186642.281
  24186644.012          42.100          27.500
 125199810.383 7  97558304.94844  23824729.023
  23824727.723          42.200          24.800
 130097967.643 6 101375127.582 6  24756834.617    24756841.637
  24756841.230          37.000          36.700
 108245945.560 7  84347518.70546  20598509.922
  20598511.840          45.200          39.200
 116978330.363 7  91151977.014 7  22260231.086    22260236.172
  22260235.906          45.200          45.600
 21  2  1  0 40 15.0000000  0 13G01G03G06G07G13G14G17G19G21G22G24G28
                                G30
 112179870.262 7  87412964.900 7  21347114.125    21347118.852
  21347119.543          46.200          46.600
 125584563.523 6  97858125.030 6  23897944.961    23897949.504
  23897949.008          40.600          36.200
 124042960.178 6  96656888.378 6  23604588.789    23604595.238
  23604594.672          41.600          41.000
 128401249.166 6 100052941.874 6  24433941.422    24433945.043
  24433945.453          40.800          38.900
 130850684.955 6 101961669.65442  24900075.656
  24900079.535          37.800          16.900
 106538109.393 7  83016737.001 9  20273519.719    20273523.020
  20273523.238          46.500          54.400
 109784061.295 8  85546051.601 8  20891205.969    20891208.293
  20891208.664          49.500          49.900
 114619936.795 7  89314336.30346  21811461.414
  21811461.879          47.800          37.600
 127148243.391 7  99076590.59644  24195495.695
  24195497.367          42.600          25.900
 125187394.100 7  97548629.93744  23822366.172
  23822364.777          42.000          25.300
 130056082.043 6 101342489.453 5  24748864.039    24748869.770
  24748870.652          38.600          30.600
 108239894.193 7  84342803.36946  20597358.055
  20597360.086          46.000          38.700
 117024815.222 7  91188198.979 7  22269076.703    22269082.406
  22269081.523          45.300          44.500
 21  2  1  0 40 30.0000000  0 13G01G03G06G07G13G14G17G19G21G22G24G28
                                G30
 112214697.157 7  87440102.764 7  21353741.148    21353745.984
  21353746.422          46.400          45.800
 125548810.123 6  97830265.246 6  23891140.703    23891145.430
  23891145.125          38.800          38.600
 123987844.851 6  96613941.415 7  23594100.539    23594107.391
  23594106.617          39.600          42.500
 128458917.726 6 100097878.435 5  24444915.430    24444919.773
  24444919.398          39.800          34.800
 130886718.467 6 101989747.67742  24906932.977
  24906936.672          36.500          17.400
 106541622.559 7  83019474.544 9  20274188.742    20274191.867
  20274192.055          46.800          54.300
 109774402.132 8  85538524.980 8  20889367.266    20889370.305
  20889370.285          48.900          49.600
 114587027.516 7  89288692.72146  21805199.227
  21805200.777          47.500          37.900
 127194803.273 7  99112871.01844  24204355.344
  24204357.180          42.400          26.800
 125175093.773 6  97539045.27844  23820024.617
  23820024.184          41.100          26.000
 130014281.482 6 101309917.548 4  24740909.180    24740911.656
  24740914.848          37.600          27.900
 108233911.432 7  84338141.47846  20596220.156
  20596221.934          47.000          39.100
 117071376.594 7  91224480.562 7  22277936.641    22277942.215
  22277942.375          46.400          46.600
 21  2  1  0 40 45.0000000  0 13G01G03G06G07G13G14G17G19G21G22G24G28
                                G30
 112249647.119 7  87467336.495 7  21360392.430    21360397.527
  21360398.125          45.100          47.200
 125513125.899 6  97802459.353 5  23884350.352    23884355.711
  23884354.629          40.300          35.800
 123932772.116 6  96571027.621 7  23583619.875    23583627.355
  23583627.332          37.900          44.000
 128516591.728 6 100142819.194 6  24455889.531    24455894.598
  24455894.488          39.200          36.100
 130922797.693 6 102017861.39443  24913799.227
  24913801.723          37.500          18.300
 106545232.971 7  83022287.868 8  20274875.938    20274878.578
  20274878.969          46.200          53.400
 109764808.185 8  85531049.181 8  20887542.273    20887544.809
  20887544.738          49.300          49.300
 114554184.600 8  89263100.82846  21798949.328
  21798951.238          48.200          37.700
 127241399.394 7  99149179.70044  24213223.023
  24213224.523          42.700          26.400
 125162909.746 6  97529551.22644  23817707.383
  23817705.840          41.200          26.700
 129972566.697 6 101277412.427 4  24732972.289    24732970.859
  24732975.395          39.900          28.000
 108227997.776 7  84333533.43346  20595094.891
  20595096.555          47.400          39.400
 117118014.377 7  91260821.695 7  22286811.023    22286817.418
  22286817.227          45.200          46.400
 21  2  1  0 41  0.0000000  0 13G01G03G06G07G13G14G17G19G21G22G24G28
                                G30
 112284719.612 7  87494665.709 7  21367065.766    21367071.313
  21367072.234          45.700          47.900
 125477510.834 6  97774707.357 6  23877572.398    23877579.168
  23877578.258          40.900          40.000
 123877742.133 6  96528147.160 7  23573148.742    23573155.859
  23573155.832          39.400          43.900
 128574270.827 6 100187763.929 6  24466865.414    24466870.273
  24466870.449          37.700          38.400
 130958922.214 6 102046010.34443  24920672.695
  24920676.832          37.900          19.300
 106548940.602 7  83025176.929 8  20275581.344    20275583.906
  20275584.070          47.600          53.100
 109755279.078 8  85523623.900 8  20885728.984    20885731.383
  20885731.809          49.200          49.400
 114521408.000 7  89237560.63846  21792712.195
  21792713.336          47.900          37.900
 127288031.095 6  99185516.07644  24222096.055
  24222098.082          41.700          25.700
 125150841.963 7  97520147.78644  23815410.727
  23815410.148          42.800          26.900
 129930937.556 6 101244974.101 5  24725050.742    24725053.133
  24725053.273          39.900          31.700
 108222153.050 7  84328979.09546  20593982.516
  20593984.332          47.200          39.100
 117164728.022 7  91297221.923 7  22295701.344    22295706.551
  22295706.582          44.900          46.500
 21  2  1  0 41 15.0000000  0 13G01G03G06G07G13G14G17G19G21G22G24G28
                                G30
 112319914.362 7  87522090.172 7  21373763.617    21373769.285
  21373770.137          45.800          47.800
 125441965.511 6  97747009.737 6  23870808.508    23870815.051
  23870814.922          39.200          40.500
 123822755.339 6  96485300.323 7  23562685.391    23562692.328
  23562691.820          40.400          44.700
 128631954.758 6 100232712.401 6  24477843.656    24477846.727
  24477847.746          41.000          39.200
 130995091.678 6 102074194.32942  24927555.883
  24927558.523          38.200          17.800
 106552745.561 7  83028141.816 8  20276305.117    20276308.309
  20276308.574          46.800          53.500
 109745814.837 8  85516249.180 8  20883927.758    20883930.109
  20883930.367          49.300          49.100
 114488697.995 7  89212072.33346  21786487.414
  21786488.613          47.100          37.600
 127334698.375 7  99221880.19443  24230976.859
  24230977.316          42.200          22.200
 125138890.706 7  97510835.12344  23813134.914
  23813135.410          42.900          27.100
 129889394.669 6 101212603.007 5  24717145.336    24717148.500
  24717147.574          39.700          32.800
 108216377.430 7  84324478.61146  20592883.125
  20592885.035          47.500          38.900
 117211517.204 7  91333680.985 7  22304604.859    22304610.258
  22304610.371          45.400          45.800
 21  2  1  0 41 30.0000000  0 13G01G03G06G07G13G14G17G19G21G22G24G28
                                G30
 112355230.978 7  87549609.611 7  21380484.328    21380489.688
  21380490.223          45.600          47.400
 125406490.262 7  97719366.712 6  23864058.609    23864064.949
  23864064.551          42.100          41.700
 123767811.932 6  96442487.306 7  23552229.945    23552236.887
  23552236.559          40.200          43.400
 128689643.065 6 100277664.294 6  24488821.125    24488825.129
  24488825.227          40.900          37.000
 131031305.568 5 102102412.94243  24934447.039
  24934450.723          35.600          18.300
 106556647.954 7  83031182.643 9  20277047.609    20277051.043
  20277051.531          46.700          54.500
 109736415.306 8  85508924.882 8  20882138.992    20882141.754
  20882141.895          48.300          48.600
 114456054.437 8  89186635.80846  21780275.594
  21780276.996          48.400          37.800
 127381401.152 7  99258271.97243  24239864.008
  24239864.703          42.800          23.800
 125127056.108 6  97501613.33844  23810884.633
  23810884.410          40.200          28.000
 129847938.146 6 101180299.281 5  24709255.688    24709259.867
  24709258.758          38.700          33.700
 108210671.072 7  84320032.08746  20591797.258
  20591799.141          47.200          38.400
 117258381.592 7  91370198.688 7  22313522.773    22313528.223
  22313527.625          45.500          43.900
 21  2  1  0 41 45.0000000  0 13G01G03G06G07G13G14G17G19G21G22G24G28
                                G30
 112390669.163 7  87577223.791 8  21387227.586    21387233.590
  21387234.188          46.000          48.000
 125371085.419 7  97691778.544 6  23857321.188    23857327.391
  23857327.672          42.000          41.700
 123712912.239 6  96399708.331 7  23541783.797    23541790.238
  23541789.234          41.600          42.600
 128747335.419 6 100322619.335 6  24499799.438    24499802.875
  24499803.309          41.800          36.200
 131067563.718 5 102130666.11243  24941345.367
  24941350.348          34.600          19.000
 106560647.914 7  83034299.504 9  20277808.914    20277812.145
  20277812.469          47.300          54.100
 109727080.501 8  85501650.994 8  20880362.500    20880365.465
  20880365.465          48.200          49.300
 114423477.217 7  89161250.97446  21774076.641
  21774078.078          46.900          37.600
 127428138.877 7  99294690.99944  24248757.984
  24248759.496          42.600          25.100
 125115338.265 7  97492482.53544  23808654.859
  23808654.504          42.300          28.100
 129806568.453 6 101148063.187 6  24701383.547    24701387.332
  24701385.992          38.800          37.000
 108205034.207 7  84315639.73146  20590724.977
  20590726.777          47.300          38.900
 117305320.782 7  91406774.691 7  22322454.914    22322460.863
  22322460.152          45.400          45.000
 21  2  1  0 42  0.0000000  0 13G01G03G06G07G13G14G17G19G21G22G24G28
                                G30
 112426228.812 7  87604932.598 7  21393993.719    21394000.598
  21394001.152          46.600          47.900
 125335751.682 6  97664245.755 7  23850597.570    23850603.867
  23850603.938          40.400          42.200
 123658056.784 7  96356963.826 7  23531344.555    23531350.953
  23531350.387          42.600          43.400
 128805031.723 6 100367577.500 5  24510778.836    24510781.996
  24510782.418          41.200          35.500
 131103865.920 6 102158953.47243  24948254.664
  24948258.348          36.900          19.600
 106564745.689 7  83037492.589 8  20278588.609    20278591.883
  20278592.141          47.200          53.200
 109717810.772 8  85494427.820 8  20878598.758    20878601.227
  20878601.293          48.500          49.100
 114390966.768 7  89135918.14146  21767889.977
  21767890.758          47.800          38.000
 127474911.388 7  99331137.12744  24257658.766
  24257660.555          43.000          26.500
 125103737.770 7  97483443.23844  23806446.336
  23806446.547          44.400          27.900
 129765286.049 6 101115895.108 5  24693527.086    24693531.594
  24693529.813          37.000          35.100
 108199467.189 7  84311301.79846  20589665.492
  20589667.500          46.700          39.300
 117352334.754 7  91443408.945 7  22331401.531    22331406.703
  22331406.512          44.900          45.800
 21  2  1  0 42 15.0000000  0 13G01G03G06G07G13G14G17G19G21G22G24G28
                                G30
 112461909.095 7  87632735.400 7  21400783.781    21400790.211
  21400790.523          46.000          47.500
 125300489.019 6  97636768.363 7  23843887.781    23843893.813
  23843893.371          41.700          42.300
 123603245.387 6  96314253.616 7  23520914.836    23520920.367
  23520919.930          40.500          43.200
 128862731.272 6 100412538.242 5  24521758.602    24521762.086
  24521762.453          41.100          35.900
 131140211.269 6 102187274.53442  24955171.898
  24955174.285          36.100          17.800
 106568940.993 7  83040761.638 8  20279386.758    20279390.074
  20279390.277          47.400          53.000
 109708605.626 8  85487254.995 8  20876847.031    20876849.352
  20876849.492          48.600          49.100
 114358522.578 7  89110636.96346  21761715.836
  21761716.918          47.700          37.800
 127521718.292 7  99367610.04044  24266565.922
  24266567.469          43.700          25.800
 125092254.432 7  97474495.19344  23804260.930
  23804261.547          43.100          28.000
 129724090.920 5 101083795.034 6  24685686.898    24685692.336
  24685691.125          34.800          37.600
 108193969.767 7  84307018.08746  20588619.227
  20588621.133          47.800          39.600
 117399422.606 7  91480100.775 7  22340362.477    22340367.457
  22340367.184          44.900          45.800
 21  2  1  0 42 30.0000000  0 13G01G03G06G07G13G14G17G19G21G22G24G28
                                G30
 112497709.788 7  87660632.025 8  21407596.992    21407602.871
  21407603.379          44.500          48.500
 125265297.863 6  97609346.706 7  23837190.219    23837196.961
  23837197.063          41.800          42.100
 123548478.552 6  96271578.198 7  23510492.820    23510498.859
  23510498.344          40.500          42.100
 128920433.837 6 100457501.254 5  24532739.070    24532743.461
  24532742.836          39.400          34.000
 131176599.452 6 102215628.95443  24962096.086
  24962099.340          37.500          18.300
 106573234.026 7  83044106.852 8  20280204.438    20280207.145
  20280207.082          47.100          52.700
 109699464.802 8  85480132.295 8  20875107.305    20875110.039
  20875110.160          48.600          49.300
 114326145.042 8  89085407.71246  21755554.930
  21755556.141          48.200          38.000
 127568559.432 7  99404109.64344  24275479.000
  24275480.508          43.000          25.000
 125080888.549 6  97465638.64344  23802098.242
  23802098.934          41.200          25.800
 129682983.355 5 101051763.153 6  24677862.656    24677870.563
  24677870.039          31.800          38.400
 108188542.121 7  84302788.74246  20587586.859
  20587588.266          47.400          39.600
 117446584.191 7  91516850.012 7  22349336.414    22349341.738
  22349341.355          46.000          44.200
 21  2  1  0 42 45.0000000  0 13G01G03G06G07G13G14G17G19G21G22G24G28
                                G30
 112533630.824 7  87688622.437 7  21414432.938    21414437.977
  21414438.684          46.500          47.900
 125230178.833 6  97581981.257 7  23830506.328    23830513.883
  23830514.281          41.500          42.800
 123493756.667 6  96228937.816 7  23500079.047    23500085.691
  23500085.430          39.000          42.300
 128978139.218 6 100502466.407 5  24543719.797    24543723.598
  24543723.672          39.600          34.800
 131213030.355 6 102244016.67042  24969028.266
  24969031.773          36.400          16.300
 106577625.077 7  83047528.450 9  20281039.461    20281042.406
  20281042.582          47.500          54.100
 109690388.363 8  85473059.732 8  20873380.305    20873383.016
  20873383.227          49.100          49.700
 114293834.352 8  89060230.55046  21749406.039
  21749407.051          48.300          37.400
 127615434.530 6  99440635.69744  24284399.203
  24284400.816          41.600          25.400
 125069640.357 7  97456873.80744  23799958.148
  23799958.695          42.700          26.000
 129641963.99615 101019800.02716  24670057.711    24670064.828
  24670065.414          30.700          39.200
 108183184.596 7  84298614.03246  20586567.375
  20586568.590          47.300          39.100
 117493819.294 7  91553656.630 7  22358325.305    22358330.301
  22358330.211          45.400          44.100
 21  2  1  0 43  0.0000000  0 12G01G03G06G07G13G14G17G19G21G22G28G30
 112569671.726 7  87716706.252 7  21421291.508    21421296.398
  21421297.301          45.800          47.700
 125195132.307 6  97554672.289 7  23823838.414    23823844.910
  23823844.605          40.900          42.600
 123439080.046 6  96186332.659 7  23489674.742    23489680.852
  23489680.520          40.600          42.500
 129035847.187 6 100547433.681 5  24554702.188    24554704.852
  24554704.773          39.000          33.600
 131249503.467 5 102272437.29842  24975968.188
  24975971.805          35.200          16.900
 106582114.213 7  83051026.485 8  20281894.320    20281896.809
  20281897.082          46.700          53.900
 109681376.175 7  85466037.244 8  20871665.867    20871668.172
  20871668.277          47.800          49.100
 114261590.288 7  89035105.32846  21743270.117
  21743271.699          46.800          37.500
 127662343.372 7  99477188.04744  24293325.375
  24293326.930          42.200          24.900
 125058510.091 7  97448200.88644  23797840.266
  23797839.949          42.600          26.100
 108177897.396 7  84294494.13846  20585561.281
  20585562.223          46.400          39.100
 117541127.574 7  91590520.208 7  22367327.555    22367333.684
  22367332.586          45.900          43.500
 21  2  1  0 43 15.0000000  0 13G01G03G06G07G13G14G17G19G21G22G24G28
                                G30
 112605831.973 7  87744883.078 7  21428172.367    21428177.063
  21428177.965          46.300          47.700
 125160158.433 6  97527419.962 7  23817182.453    23817189.957
  23817189.016          41.800          42.100
 123384448.727 6  96143762.807 6  23479278.633    23479283.898
  23479283.844          40.900          41.100
 129093556.925 6 100592402.341 5  24565683.563    24565686.793
  24565686.473          40.400          33.400
 131286018.421 6 102300890.46542  24982917.516
  24982920.207          37.900          15.600
 106586701.332 7  83054600.864 8  20282766.367    20282769.547
  20282769.914          47.000          53.800
 109672427.992 8  85459064.638 8  20869963.203    20869965.219
  20869965.105          48.900          49.100
 114229412.665 7  89010031.87146  21737147.461
  21737148.414          47.400          38.000
 127709285.387 6  99513766.23344  24302257.500
  24302259.734          41.100          25.800
 125047497.688 7  97439619.84944  23795744.289
  23795743.641          42.100          26.000
 129560190.065 5 100956080.224 6  24654497.648    24654504.023
  24654504.023          31.600          38.800
 108172680.360 7  84290428.92346  20584568.461
  20584569.945          46.100          38.800
 117588508.448 7  91627440.353 7  22376344.227    22376349.559
  22376349.180          46.400          44.600
 21  2  1  0 43 30.0000000  0 13G01G03G06G07G13G14G17G19G21G22G24G28
                                G30
 112642111.702 7  87773153.001 7  21435075.922    21435081.258
  21435081.883          47.400          47.100
 125125257.992 6  97500224.863 7  23810540.203    23810548.301
  23810547.840          39.900          43.400
 123329863.575 6  96101228.940 7  23468890.656    23468897.281
  23468896.648          37.900          42.300
 129151268.704 6 100637372.599 5  24576665.883    24576669.750
  24576669.398          40.100          33.100
 131322575.047 5 102329376.15242  24989873.875
  24989877.277          35.200          16.300
 106591386.964 7  83058252.002 8  20283658.086    20283660.840
  20283661.262          47.900          53.300
 109663544.232 8  85452142.236 8  20868271.930    20868274.387
  20868274.027          49.000          48.800
 114197302.086 8  88985010.65146  21731036.664
  21731037.879          48.200          37.800
 127756260.781 6  99550370.45344  24311196.797
  24311199.328          40.600          24.600
 125036603.800 6  97431131.10444  23793670.867
  23793671.203          41.600          26.200
 129519436.535 5 100924324.275 6  24646742.414    24646748.645
  24646748.520          32.500          37.600
 108167534.105 7  84286418.86646  20583589.234
  20583590.563          46.800          39.200
 117635961.987 7  91664417.168 7  22385374.531    22385379.371
  22385378.977          45.000          46.700
 21  2  1  0 43 45.0000000  0 13G01G03G06G07G13G14G17G19G21G22G24G28
                                G30
 112678510.230 7  87801515.501 7  21442002.055    21442007.418
  21442008.254          47.900          46.600
 125090431.296 6  97473087.126 7  23803914.625    23803920.957
  23803921.105          40.200          43.400
 123275324.488 6  96058730.913 6  23458512.539    23458518.590
  23458518.406          37.700          41.800
 129208981.938 6 100682343.959 5  24587647.609    24587651.336
  24587651.555          39.400          35.200
 131359172.790 5 102357893.70743  24996837.992
  24996841.582          35.400          19.000
 106596170.914 8  83061979.744 8  20284569.141    20284571.516
  20284571.625          48.000          53.000
 109654724.599 8  85445269.808 8  20866593.734    20866596.090
  20866596.176          49.000          48.800
 114165258.256 7  88960041.42546  21724939.438
  21724940.113          46.000          37.800
 127803269.117 6  99587000.30143  24320142.000
  24320145.230          39.900          23.600
 125025828.431 7  97422734.70244  23791621.164
  23791621.336          42.100          28.400
 129478772.298 6 100892637.805 5  24639004.945    24639010.871
  24639010.180          37.400          35.700
 108162458.539 7  84282463.88946  20582623.211
  20582625.043          46.700          39.300
 117683487.648 7  91701450.094 7  22394418.234    22394423.367
  22394423.340          45.300          45.100
 21  2  1  0 44  0.0000000  0 13G01G03G06G07G13G14G17G19G21G22G24G28
                                G30
 112715027.304 7  87829970.391 7  21448951.031    21448956.625
  21448956.988          46.700          46.500
 125055678.471 6  97446007.062 7  23797300.133    23797307.691
  23797307.449          39.900          43.100
 123220831.833 6  96016269.150 7  23448142.031    23448149.004
  23448148.176          39.500          42.100
 129266696.418 6 100727316.258 6  24598630.922    24598634.164
  24598634.535          38.700          36.600
 131395811.352 5 102386424.38343  25003809.688
  25003811.406          35.300          19.000
 106601053.343 7  83065784.229 8  20285498.375    20285500.977
  20285501.047          47.500          53.200
 109645969.026 8  85438447.288 8  20864927.406    20864930.309
  20864930.313          48.300          49.900
 114133281.425 8  88935124.41746  21718854.203
  21718855.297          48.200          38.200
 127850310.054 6  99623655.58944  24329092.844
  24329096.559          40.500          24.000
 125015171.678 6  97414430.74844  23789593.500
  23789593.223          41.800          29.100
 129438197.424 6 100861021.059 6  24631283.180    24631290.445
  24631290.172          37.400          37.100
 108157453.888 7  84278564.16046  20581670.938
  20581672.754          47.000          39.900
 117731085.021 7  91738538.960 7  22403475.203    22403480.582
  22403480.652          45.300          45.700
 21  2  1  0 44 15.0000000  0 13G01G03G06G07G13G14G17G19G21G22G24G28
                                G30
 112751662.330 7  87858517.165 7  21455922.648    21455927.289
  21455927.734          46.200          45.700
 125020999.923 6  97418984.846 7  23790701.438    23790708.453
  23790708.148          41.000          42.700
 123166385.740 6  95973843.640 7  23437782.211    23437788.484
  23437788.227          39.000          43.300
 129324411.505 6 100772288.981 6  24609614.078    24609617.168
  24609617.820          38.300          36.800
 131432490.041 6 102415051.02853  25010789.664
  25010801.594          36.700          18.300
 106606034.112 7  83069665.342 8  20286446.094    20286448.617
  20286448.559          47.300          53.000
 109637277.460 8  85431674.628 8  20863273.266    20863276.145
  20863276.133          48.700          49.700
 114101371.245 7  88910259.37046  21712781.617
  21712782.207          47.300          37.700
 127897383.069 6  99660335.83343  24338051.008
  24338053.664          39.200          22.500
 125004633.537 7  97406219.22044  23787587.922
  23787587.090          44.100          27.900
 129397712.579 6 100829474.426 6  24623579.367    24623586.430
  24623587.258          37.500          38.100
 108152519.950 7  84274719.52846  20580732.461
  20580733.598          46.300          40.000
 117778753.584 7  91775683.302 7  22412546.375    22412551.598
  22412551.102          44.900          45.200
 21  2  1  0 44 30.0000000  0 13G01G03G06G07G13G14G17G19G21G22G24G28
                                G30
 112788415.288 7  87887155.836 7  21462916.391    21462921.109
  21462921.684          45.700          45.800
 124986396.249 6  97392020.957 6  23784116.680    23784123.801
  23784122.527          39.800          40.800
 123111986.767 6  95931454.819 7  23427430.531    23427437.430
  23427436.914          41.400          44.500
 129382127.082 6 100817262.131 6  24620596.414    24620600.453
  24620601.113          37.600          36.800
 131469208.777 5                  25017778.453
                        35.700
 106611113.573 7  83073623.385 8  20287412.133    20287415.086
  20287414.969          46.200          53.000
 109628649.813 8  85424951.775 8  20861631.609    20861634.289
  20861634.477          49.200          49.900
 114069528.116 7  88885446.55446  21706721.961
  21706722.664          47.600          37.900
 127944488.272 6  99697041.19543  24347015.992
  24347017.676          41.300          23.500
 124994214.550 7  97398100.56444  23785604.828
  23785604.449          42.600          27.800
 129357317.801 6 100797998.033 5  24615892.828    24615899.426
  24615900.348          38.900          35.900
 108147657.054 7  84270930.25646  20579806.695
  20579807.816          47.600          39.500
 117826493.265 7  91812883.044 7  22421631.039    22421636.777
  22421635.891          45.500          44.300
 21  2  1  0 44 45.0000000  0 13G01G03G06G07G13G14G17G19G21G22G24G28
                                G30
 112825285.520 7  87915885.895 7  21469932.383    21469937.383
  21469937.930          46.200          46.700
 124951867.559 6  97365115.560 7  23777545.695    23777552.609
  23777552.398          40.000          42.400
 123057634.965 6  95889102.788 7  23417088.359    23417094.578
  23417094.023          41.800          43.100
 129439842.629 6 100862235.269 6  24631579.461    24631583.488
  24631584.305          39.000          36.400
 131505966.880 6 102472276.81143  25024772.078
  25024776.145          36.400          19.600
 106616291.627 7  83077658.222 8  20288398.133    20288400.320
  20288400.430          47.800          53.200
 109620085.669 8  85418278.432 8  20860002.227    20860004.277
  20860004.586          48.000          49.200
 114037751.786 7  88860685.77046  21700675.523
  21700676.621          46.700          37.700
 127991625.081 7  99733771.16644  24355985.461
  24355987.770          42.800          25.600
 124983914.657 6  97390074.68444  23783644.641
  23783644.980          40.600          28.100
 129317013.395 6 100766592.016 6  24608223.617    24608230.520
  24608231.344          40.400          40.200
 108142865.096 7  84267196.25246  20578894.586
  20578896.066          47.100          39.400
 117874303.456 7  91850137.721 7  22430729.328    22430734.719
  22430734.699          46.000          45.800
 21  2  1  0 45  0.0000000  0 13G01G03G06G07G13G14G17G19G21G22G24G28
                                G30
 112862272.997 7  87944707.338 7  21476970.320    21476975.742
  21476976.066          45.100          46.100
 124917414.573 6  97338269.055 7  23770990.305    23770996.000
  23770996.887          39.300          42.300
 123003330.843 6  95846787.913 7  23406754.367    23406760.949
  23406760.297          41.500          44.300
 129497558.193 6 100907208.458 5  24642561.945    24642566.203
  24642566.715          39.400          32.900
 131542764.230 6 102500950.05542  25031774.742
  25031777.691          37.900          17.400
 106621568.621 8  83081770.147 8  20289402.508    20289404.184
  20289404.465          48.200          53.400
 109611585.290 7  85411654.777 8  20858384.430    20858386.848
  20858387.109          46.800          49.400
 114006042.561 7  88835977.29146  21694641.180
  21694642.207          47.200          38.100
 128038793.473 6  99770525.77144  24364961.297
  24364963.457          41.100          25.000
 124973734.295 6  97382141.92044  23781707.750
  23781708.605          41.600          27.700
 129276799.790 6 100735256.707 6  24600571.609    24600578.492
  24600579.063          40.200          38.300
 108138144.681 7  84263517.99346  20577996.414
  20577998.020          46.900          38.700
 117922184.077 7  91887447.271 7  22439840.320    22439845.945
  22439845.574          44.600          45.300
 21  2  1  0 45 15.0000000  0 13G01G03G06G07G13G14G17G19G21G22G24G28
                                G30
 112899376.927 7  87973619.483 7  21484031.656    21484036.891
  21484037.137          45.800          45.600
 124883037.268 6  97311481.485 6  23764448.961    23764453.602
  23764454.313          40.500          40.900
 122949074.353 6  95804510.111 7  23396430.242    23396436.789
  23396436.129          41.500          46.300
 129555272.964 6 100952181.004 5  24653545.242    24653549.137
  24653548.898          40.900          34.600
 131579600.196 5 102529653.42342  25038783.703
  25038787.648          35.500          17.800
 106626944.194 7  83085958.909 8  20290424.961    20290427.406
  20290427.730          46.200          53.500
 109603148.248 7  85405080.448 8  20856778.906    20856781.445
  20856781.824          45.500          49.600
 113974400.071 7  88811320.82146  21688619.492
  21688620.230          47.100          37.300
 128085992.831 6  99807304.46944  24373942.703
  24373944.961          41.100          25.000
 124963673.172 6  97374302.07244  23779793.133
  23779793.695          39.700          27.000
 129236676.902 7 100703992.120 5  24592936.484    24592941.621
  24592943.090          42.200          34.700
 108133495.561 7  84259895.30446  20577112.031
  20577113.031          45.400          39.200
 117970134.359 7  91924811.151 7  22448965.070    22448970.223
  22448970.063          45.100          44.400
 21  2  1  0 45 30.0000000  0 13G01G03G06G07G13G14G17G19G21G22G24G28
                                G30
 112936597.385 7  88002622.421 7  21491113.781    21491119.504
  21491120.020          45.600          46.500
 124848736.286 6  97284753.494 6  23757920.414    23757926.602
  23757927.480          41.100          40.500
 122894866.127 6  95762269.972 7  23386113.773    23386120.285
  23386120.137          41.100          45.100
 129612986.892 6 100997152.942 5  24664528.406    24664530.813
  24664531.473          39.700          35.500
 131616474.626 5 102558386.75742  25045801.453
  25045804.375          35.100          16.300
 106632418.852 7  83090224.896 8  20291466.430    20291469.293
  20291469.609          47.200          53.400
 109594774.851 7  85398555.726 8  20855186.023    20855188.020
  20855188.309          47.600          49.400
 113942824.704 7  88786716.67046  21682611.617
  21682611.918          47.400          38.100
 128133223.193 6  99844107.35644  24382930.797
  24382933.113          41.700          26.800
 124953731.871 6  97366555.61944  23777901.625
  23777901.336          40.700          25.800
 129196645.626 6 100672798.889 5  24585319.320    24585323.008
  24585322.332          41.400          31.300
 108128918.176 7  84256328.52646  20576240.445
  20576242.289          45.300          38.700
 118018154.354 7  91962229.307 7  22458103.266    22458108.566
  22458107.773          45.600          45.200
 21  2  1  0 45 45.0000000  0 13G01G03G06G07G13G14G17G19G21G22G24G28
                                G30
 112973933.946 7  88031715.854 7  21498218.875    21498224.426
  21498225.262          43.900          46.800
 124814512.095 6  97258085.303 6  23751407.820    23751413.977
  23751414.184          41.400          40.800
 122840706.376 6  95720067.623 7  23375807.109    23375814.488
  23375814.270          39.700          44.700
 129670699.628 6 101042123.898 5  24675510.367    24675513.434
  24675513.477          41.000          35.900
 131653387.221 5 102587149.78342  25052824.945
  25052828.301          35.900          16.900
 106637992.664 8  83094568.124 8  20292527.703    20292530.246
  20292530.422          48.500          53.000
 109586464.970 7  85392080.508 8  20853604.250    20853606.707
  20853607.039          47.700          49.500
 113911316.490 8  88762164.80846  21676615.469
  21676616.703          48.200          38.300
 128180484.330 6  99880934.21244  24391924.859
  24391927.598          41.200          27.100
 124943910.522 7  97358902.63344  23776032.281
  23776031.191          42.500          26.200
 129156705.870 6 100641676.884 5  24577719.500    24577721.395
  24577721.793          41.800          32.500
 108124412.572 7  84252817.67946  20575383.172
  20575384.828          46.300          39.000
 118066243.663 7  91999701.501 7  22467253.680    22467259.191
  22467258.938          45.200          43.700
 21  2  1  0 46  0.0000000  0 13G01G03G06G07G13G14G17G19G21G22G24G28
                                G30
 113011386.131 7  88060899.378 7  21505346.477    21505351.688
  21505352.520          44.600          47.500
 124780364.976 6  97231477.146 6  23744910.430    23744915.648
  23744914.480          40.000          37.800
 122786595.440 6  95677903.275 7  23365511.109    23365516.828
  23365516.973          40.300          44.500
 129728410.787 6 101087093.625 6  24686492.203    24686495.855
  24686495.754          38.100          37.800
 131690337.285 5 102615942.04242  25059855.984
  25059859.945          34.100          16.900
 106643665.575 8  83098988.569 8  20293606.844    20293609.660
  20293609.629          48.600          52.900
 109578218.403 7  85385654.601 8  20852035.266    20852037.891
  20852038.207          46.700          49.900
 113879875.335 8  88737665.19846  21670632.813
  21670632.945          48.500          38.000
 128227775.738 7  99917784.63244  24400924.039
  24400926.848          42.500          26.000
 124934209.191 7  97351343.18444  23774185.891
  23774186.250          42.000          29.100
 129116857.867 6 100610626.460 6  24570135.789    24570140.758
  24570140.457          39.200          36.200
 108119978.930 7  84249362.90546  20574539.344
  20574541.098          47.200          39.700
 118114401.751 7  92037227.271 7  22476418.391    22476423.410
  22476422.535          44.000          43.200
 21  2  1  0 46 15.0000000  0 13G01G03G06G07G13G14G17G19G21G22G24G28
                                G30
 113048953.645 7  88090172.751 7  21512495.180    21512500.234
  21512500.871          43.400          46.900
 124746295.284 6  97204929.344 5  23738427.133    23738433.867
  23738431.941          41.300          35.300
 122732533.469 6  95635777.072 7  23355222.813    23355229.105
  23355228.883          41.100          42.100
 129786120.099 5 101132061.911 6  24697473.227    24697477.336
  24697477.344          35.800          37.100
 131727324.607 6 102644763.35443  25066894.781
  25066898.258          36.600          18.600
 106649437.692 7  83103486.309 8  20294705.633    20294708.234
  20294708.297          47.400          53.300
 109570035.205 8  85379278.083 8  20850478.094    20850481.117
  20850481.109          49.000          50.200
 113848501.168 8  88713217.79746  21664662.523
  21664661.930          49.300          37.900
 128275097.317 7  99954658.58244  24409929.266
  24409931.031          43.200          26.400
 124924628.073 7  97343877.38644  23772363.078
  23772363.895          42.700          28.500
 129077102.339 5 100579648.091 6  24562569.281    24562575.324
  24562575.211          33.500          38.200
 108115617.308 8  84245964.22946  20573710.133
  20573711.020          48.000          40.200
 118162628.360 7  92074806.458 7  22485595.313    22485600.469
  22485599.727          45.000          45.300
 21  2  1  0 46 30.0000000  0 13G01G03G06G07G13G14G17G19G21G22G24G28
                                G30
 113086635.932 7  88119535.594 7  21519665.359    21519671.020
  21519671.012          44.100          46.900
 124712303.247 6  97178442.063 6  23731959.383    23731964.234
  23731963.734          39.600          39.300
 122678520.644 6  95593689.209 6  23344943.820    23344951.070
  23344950.020          40.500          40.000
 129843827.093 5 101177028.348 6  24708453.984    24708458.426
  24708458.918          32.300          37.500
 131764348.756 5 102673613.29543  25073940.555
  25073943.699          34.400          18.300
 106655308.938 7  83108061.308 8  20295822.273    20295825.340
  20295825.547          46.100          53.600
 109561914.956 8  85372950.622 8  20848933.281    20848935.121
  20848935.191          48.000          49.000
 113817194.010 8  88688822.62346  21658704.352
  21658705.285          49.500          38.800
 128322448.601 6  99991555.68044  24418939.711
  24418941.648          39.100          25.600
 124915167.350 7  97336505.37144  23770563.227
  23770563.258          42.500          29.200
 129037439.134 5 100548741.793 6  24555021.281    24555027.770
  24555027.520          33.500          38.600
 108111327.659 7  84242621.63146  20572893.664
  20572894.430          47.900          39.600
 118210922.936 7  92112438.605 7  22494785.375    22494790.457
  22494790.176          44.100          45.000
 21  2  1  0 46 45.0000000  0 13G01G03G06G07G13G14G17G19G21G22G24G28
                                G30
 113124432.846 7  88148987.728 7  21526857.719    21526863.504
  21526863.422          44.300          46.700
 124678389.349 7  97152015.620 6  23725504.750    23725510.570
  23725510.613          42.400          39.800
 122624557.473 6  95551639.948 6  23334675.156    23334681.578
  23334680.641          39.000          40.700
 129901531.513 5 101221992.758 6  24719435.164    24719439.840
  24719440.227          33.000          37.700
 131801409.492 5 102702491.76743  25080992.813
  25080995.703          35.800          19.300
 106661279.585 7  83112713.778 8  20296958.578    20296961.441
  20296961.805          47.700          53.700
 109553857.609 7  85366672.180 8  20847399.555    20847401.781
  20847401.461          47.200          48.800
 113785953.987 7  88664479.74646  21652760.320
  21652760.590          47.300          37.900
 128369829.356 7 100028475.75344  24427956.023
  24427956.863          42.300          24.600
 124905827.128 6  97329227.28444  23768785.797
  23768785.453          41.600          29.400
 128997868.551 5 100517907.615 6  24547491.508    24547497.668
  24547497.313          34.300          40.000
 108107110.318 7  84239335.38946  20572090.359
  20572091.883          46.700          39.200
 118259285.308 7  92150123.542 7  22503988.617    22503993.762
  22503993.434          45.200          44.500
 21  2  1  0 47  0.0000000  0 13G01G03G06G07G13G14G17G19G21G22G24G28
                                G30
 113162344.226 7  88178529.041 7  21534072.883    21534078.113
  21534078.422          46.200          46.800
 124644554.241 6  97125650.596 6  23719066.359    23719071.488
  23719072.305          41.100          39.700
 122570644.426 6  95509629.729 7  23324416.844    23324422.836
  23324421.629          39.400          42.600
 129959233.250 5 101266955.161 5  24730416.273    24730419.965
  24730419.973          34.700          35.200
 131838506.233 5 102731398.31842  25088051.391
  25088054.969          35.300          17.800
 106667349.934 7  83117443.919 8  20298114.117    20298116.316
  20298116.578          47.900          53.500
 109545863.463 7  85360442.998 8  20845878.563    20845880.469
  20845880.496          47.600          48.800
 113754781.407 8  88640189.41546  21646828.313
  21646828.488          48.900          38.300
 128417239.548 7 100065418.76844  24436976.797
  24436978.828          43.400          25.700
 124896607.994 7  97322043.57644  23767030.422
  23767030.723          44.700          29.700
 128958391.388 5 100487146.256 6  24539979.758    24539985.734
  24539985.148          35.200          40.900
 108102965.889 7  84236105.98446  20571301.969
  20571303.590          45.400          38.600
 118307715.296 7  92187861.188 7  22513205.336    22513209.730
  22513208.879          44.900          43.800
 21  2  1  0 47 15.0000000  0 13G01G03G06G07G13G14G17G19G21G22G24G28
                                G30
 113200369.485 7  88208159.123 7  21541308.867    21541313.770
  21541314.172          45.900          47.300
 124610798.150 6  97099347.130 6  23712643.438    23712648.625
  23712648.383          40.400          39.100
 122516781.504 6  95467658.663 7  23314166.039    23314172.621
  23314172.340          40.300          42.600
 130016931.667 6 101311914.959 5  24741395.133    24741398.637
  24741399.430          38.100          35.000
 131875638.722 6 102760332.66143  25095117.031
  25095121.453          36.300          18.300
 106673519.848 7  83122251.629 8  20299287.758    20299290.500
  20299290.238          47.600          52.900
 109537932.196 7  85354262.784 8  20844369.195    20844371.348
  20844371.578          47.900          49.200
 113723676.081 7  88615951.51946  21640908.898
  21640909.164          47.800          38.100
 128464678.732 7 100102384.36744  24446004.633
  24446006.516          42.500          26.000
 124887509.682 7  97314954.01544  23765299.344
  23765299.203          42.400          29.100
 128919007.601 6 100456457.599 7  24532485.719    24532491.809
  24532491.859          37.900          43.700
 108098893.861 7  84232932.99246  20570527.148
  20570528.332          46.100          38.500
 118356212.360 7  92225651.109 7  22522433.602    22522438.258
  22522437.746          45.300          45.300
 21  2  1  0 47 30.0000000  0 13G01G03G06G07G13G14G17G19G21G22G24G28
                                G30
 113238508.232 7  88237877.610 7  21548566.305    21548571.590
  21548572.020          46.000          46.900
 124577121.332 7  97073105.479 6  23706234.906    23706240.398
  23706240.262          43.300          40.700
 122462969.044 6  95425726.898 6  23303927.172    23303932.387
  23303932.531          41.300          41.500
 130074626.452 6 101356871.938 5  24752374.688    24752378.527
  24752378.332          38.000          34.100
 131912806.457 5 102789294.56942  25102191.570
  25102194.520          35.800          16.900
 106679789.332 7  83127136.933 8  20300480.500    20300483.820
  20300483.586          46.700          53.000
 109530063.686 7  85348131.471 8  20842871.305    20842874.031
  20842874.211          47.800          49.700
 113692638.065 7  88591766.05146  21635002.672
  21635003.645          47.700          38.500
 128512146.653 6 100139372.36444  24455037.219
  24455039.586          40.800          24.100
 124878532.301 7  97307958.66744  23763590.734
  23763591.891          42.000          29.600
 128879717.567 6 100425841.986 7  24525010.070    24525015.355
  24525015.305          39.900          44.900
 108094894.513 7  84229816.61246  20569765.703
  20569767.277          46.700          38.400
 118404776.060 7  92263492.950 7  22531674.727    22531680.270
  22531679.129          45.000          43.600
 21  2  1  0 47 45.0000000  0 13G01G03G06G07G13G14G17G19G21G22G24G28
                                G30
 113276760.179 7  88267684.323 7  21555845.406    21555850.430
  21555851.090          46.300          47.900
 124543524.227 7  97046925.957 6  23699841.336    23699847.059
  23699847.316          42.800          40.700
 122409207.425 6  95383834.765 7  23293696.563    23293701.746
  23293701.988          41.700          42.200
 130132317.384 6 101401825.959 5  24763352.313    24763355.973
  24763355.891          37.800          35.500
 131950009.037 5 102818283.60542  25109270.492
  25109273.609          35.700          17.400
 106686158.564 7  83132099.982 8  20301693.031    20301695.828
  20301695.965          46.500          53.200
 109522257.983 8  85342049.100 8  20841386.234    20841388.574
  20841388.668          48.400          49.300
 113661667.324 7  88567633.01546  21629108.672
  21629109.387          47.800          38.000
 128559643.150 6 100176382.61243  24464075.336
  24464077.984          40.600          22.300
 124869675.972 7  97301057.62244  23761905.977
  23761906.844          42.700          29.400
 128840521.606 6 100395299.738 7  24517550.703    24517557.063
  24517556.441          40.700          44.200
 108090968.046 7  84226757.01146  20569018.977
  20569020.133          47.200          38.600
 118453406.120 7  92301386.485 7  22540928.797    22540934.012
  22540933.270          46.000          43.200
 21  2  1  0 48  0.0000000  0 13G01G03G06G07G13G14G17G19G21G22G24G28
                                G30
 113315125.015 7  88297579.000 7  21563146.406    21563151.063
  21563151.164          46.400          46.600
 124510007.259 6  97020808.874 7  23693463.602    23693469.215
  23693469.043          41.800          42.300
 122355496.899 7  95341982.401 7  23283474.953    23283481.598
  23283480.957          43.200          43.400
 130190004.194 6 101446776.720 6  24774330.281    24774333.773
  24774334.246          37.900          36.700
 131987246.286 6 102847299.67042  25116355.219
  25116358.898          36.500          16.300
 106692627.667 7  83137140.848 8  20302923.836    20302926.797
  20302927.094          47.200          53.200
 109514514.906 8  85336015.539 8  20839912.742    20839915.074
  20839915.070          48.000          49.300
 113630764.032 7  88543552.53346  21623228.250
  21623228.840          47.400          38.400
 128607167.903 6 100213414.89844  24473119.664
  24473121.527          40.600          24.700
 124860941.364 7  97294251.40344  23760244.820
  23760244.559          43.000          29.400
 128801419.914 6 100364830.934 7  24510110.773    24510115.051
  24510115.008          41.800          45.200
 108087114.673 7  84223754.37146  20568285.555
  20568286.895          46.600          38.700
 118502102.215 7  92339331.505 7  22550195.094    22550201.496
  22550200.359          45.300          43.700
 21  2  1  0 48 15.0000000  0 13G01G03G06G07G13G14G17G19G21G22G24G28
                                G30
 113353602.128 7  88327561.165 7  21570468.797    21570473.078
  21570473.250          46.300          46.500
 124476570.602 6  96994754.321 7  23687100.586    23687106.313
  23687106.520          41.300          42.300
 122301837.556 7  95300169.899 7  23273264.094    23273270.469
  23273270.176          42.600          43.100
 130247686.379 6 101491723.929 5  24785307.094    24785309.848
  24785310.594          36.600          35.700
 132024517.489 6 102876342.17242  25123448.602
  25123451.980          37.200          17.400
 106699196.490 7  83142259.408 8  20304173.633    20304176.801
  20304177.094          47.000          53.200
 109506834.238 7  85330030.596 8  20838451.195    20838453.488
  20838453.719          47.300          49.800
 113599927.887 7  88519524.36946  21617360.375
  21617361.402          47.600          38.000
 128654720.223 6 100250468.66044  24482167.969
  24482170.152          41.100          24.700
 124852328.291 7  97287539.94144  23758604.859
  23758604.980          43.400          29.300
 128762412.587 6 100334435.631 7  24502687.570    24502692.297
  24502692.723          41.500          45.100
 108083334.325 7  84220808.64146  20567566.211
  20567567.695          46.400          39.200
 118550863.768 7  92377327.510 7  22559473.867    22559479.652
  22559478.773          45.200          44.100
 21  2  1  0 48 30.0000000  0 13G01G03G06G07G13G14G17G19G21G22G24G28
                                G30
 113392191.482 7  88357630.790 7  21577811.469    21577816.402
  21577816.969          46.800          46.400
 124443214.935 6  96968762.914 6  23680753.227    23680758.301
  23680758.535          41.900          41.400
 122248230.013 6  95258397.778 7  23263062.703    23263069.730
  23263068.961          41.700          43.700
 130305363.909 5 101536667.463 5  24796282.914    24796285.930
  24796286.320          34.700          35.300
 132061822.501 5 102905411.04442  25130548.273
  25130550.742          35.900          16.300
 106705865.438 7  83147455.987 8  20305442.813    20305445.668
  20305445.648          46.300          53.000
 109499216.201 7  85324094.453 8  20837001.867    20837003.551
  20837004.063          46.700          48.800
 113569159.342 8  88495548.89746  21611504.797
  21611505.160          48.400          38.100
 128702300.409 6 100287544.13543  24491221.984
  24491223.871          39.500          23.800
 124843837.030 6  97280923.39544  23756988.656
  23756989.277          41.200          28.900
 128723500.431 6 100304114.480 7  24495281.828    24495288.023
  24495288.363          39.800          45.400
 108079627.390 7  84217920.12546  20566860.406
  20566862.184          46.100          38.600
 118599690.741 7  92415374.523 7  22568765.461    22568771.348
  22568770.699          45.300          43.900
 21  2  1  0 48 45.0000000  0 13G01G03G06G07G13G14G17G19G21G22G24G28
                                G30
 113430892.464 7  88387787.408 7  21585176.359    21585180.602
  21585181.129          46.300          46.500
 124409940.376 6  96942834.725 7  23674421.109    23674427.313
  23674426.371          40.100          42.200
 122194674.276 6  95216666.048 7  23252871.836    23252878.195
  23252877.535          40.200          43.100
 130363036.079 5 101581606.781 5  24807255.422    24807260.051
  24807260.520          31.500          34.400
 132099160.793 5 102934505.77242  25137653.492
  25137656.070          35.700          14.800
 106712634.320 7  83152730.442 8  20306731.023    20306734.262
  20306734.270          46.800          53.400
 109491660.437 8  85318206.858 8  20835564.414    20835565.395
  20835565.508          48.300          48.500
 113538458.049 7  88471625.83146  21605662.516
  21605663.094          46.400          37.900
 128749907.791 6 100324640.82643  24500281.156
  24500283.488          39.600          22.900
 124835467.710 6  97274401.84244  23755396.914
  23755397.211          40.900          29.300
 128684683.171 6 100273867.296 7  24487895.438    24487901.527
  24487902.035          40.400          45.300
 108075993.725 7  84215088.70046  20566169.164
  20566170.828          46.100          39.200
 118648582.475 7  92453471.965 7  22578069.273    22578075.852
  22578074.547          45.400          44.000
 21  2  1  0 49  0.0000000  0 12G01G03G06G13G14G17G19G21G22G24G28G30
 113469704.995 7  88418030.940 7  21592560.836    21592566.559
  21592566.785          45.500          46.200
 124376747.521 6  96916970.171 7  23668104.930    23668110.797
  23668110.672          41.100          42.300
 122141170.874 6  95174975.107 7  23242689.969    23242697.145
  23242696.578          39.900          44.300
 132136532.243 5 102963626.38042  25144764.031
  25144767.633          35.000          14.800
 106719503.495 7  83158083.037 8  20308038.398    20308041.184
  20308041.387          47.600          53.000
 109484167.096 8  85312367.913 8  20834137.844    20834139.988
  20834139.887          48.700          49.000
 113507824.363 7  88447755.39346  21599833.797
  21599834.605          47.800          38.300
 128797542.550 6 100361758.77543  24509345.992
  24509348.613          40.700          23.600
 124827220.498 7  97267975.46644  23753827.180
  23753827.176          43.700          29.800
 128645961.650 6 100243694.706 7  24480526.789    24480532.578
  24480532.910          39.800          44.100
 108072433.815 7  84212314.74846  20565491.648
  20565493.402          46.800          38.900
 118697538.948 7  92491619.818 7  22587384.953    22587391.340
  22587390.711          44.700          44.600
 21  2  1  0 49 15.0000000  0 12G01G03G06G13G14G17G19G21G22G24G28G30
 113508628.777 7  88448361.145 7  21599968.469    21599973.395
  21599973.434          45.100          45.300
 124343636.883 6  96891169.691 6  23661803.398    23661810.031
  23661809.000          40.900          40.500
 122087720.194 6  95133325.248 7  23232519.180    23232525.863
  23232525.500          40.000          43.900
 132173936.386 5 102992772.51342  25151883.047
  25151885.824          34.500          15.600
 106726473.062 7  83163513.877 8  20309364.109    20309367.398
  20309367.453          47.200          53.300
 109476736.119 8  85306577.535 8  20832723.742    20832726.746
  20832726.848          48.100          49.500
 113477258.152 7  88423937.59046  21594016.492
  21594017.516          47.800          38.700
 128845204.364 6 100398897.84844  24518416.219
  24518418.578          40.800          24.300
 124819095.680 7  97261644.45744  23752280.383
  23752280.805          44.100          29.600
 128607335.932 6 100213596.741 7  24473176.336    24473182.188
  24473182.031          38.900          42.700
 108068947.817 7  84209598.37946  20564828.164
  20564829.469          46.600          39.100
 118746559.770 7  92529817.862 7  22596714.063    22596720.211
  22596719.367          43.800          44.700
 21  2  1  0 49 30.0000000  0 12G01G03G06G13G14G17G19G21G22G24G28G30
 113547663.193 7  88478777.577 7  21607396.086    21607401.363
  21607401.977          43.400          45.400
 124310608.549 6  96865433.355 6  23655518.492    23655525.055
  23655523.766          39.400          41.400
 122034322.272 6  95091716.515 7  23222356.539    23222364.582
  23222364.750          40.800          44.700
 132211372.700 6 103021943.64142  25159007.344
  25159009.566          36.500          16.900
 106733542.898 7  83169022.840 8  20310709.648    20310713.090
  20310713.113          47.800          53.900
 109469367.209 8  85300835.508 8  20831321.836    20831324.586
  20831324.656          48.300          50.300
 113446759.327 7  88400172.29746  21588212.680
  21588213.941          47.300          37.900
 128892892.768 6 100436057.67343  24527490.688
  24527493.379          40.600          23.200
 124811093.097 7  97255408.67045  23750757.906
  23750758.563          44.300          30.200
 128568806.206 6 100183573.573 6  24465844.445    24465850.047
  24465849.863          37.300          40.400
 108065535.636 7  84206939.53146  20564179.461
  20564180.473          46.600          38.300
 118795644.422 7  92568065.628 7  22606053.953    22606059.828
  22606059.676          45.000          45.800
 21  2  1  0 49 45.0000000  0 12G01G03G06G13G14G17G19G21G22G24G28G30
 113586807.923 7  88509279.981 7  21614844.828    21614849.887
  21614850.316          43.400          44.600
 124277662.948 6  96839761.513 7  23649249.680    23649256.246
  23649255.410          40.200          43.300
 121980977.454 6  95050149.162 7  23212205.961    23212213.418
  23212213.188          39.900          45.800
 132248840.816 6 103051139.50542  25166136.094
  25166139.820          36.900          16.300
 106740713.136 8  83174610.038 8  20312074.359    20312077.203
  20312077.402          48.200          53.800
 109462060.578 8  85295142.035 8  20829931.672    20829933.605
  20829934.039          49.300          49.900
 113416328.057 7  88376459.62446  21582422.070
  21582423.336          47.800          38.600
 128940607.478 6 100473237.96043  24536570.297
  24536573.516          41.400          23.200
 124803213.131 7  97249268.45845  23749258.430
  23749258.965          44.600          30.200
 128530372.888 5 100153625.546 6  24458531.023    24458536.387
  24458535.652          35.100          37.900
 108062197.395 7  84204338.30446  20563544.227
  20563545.133          46.200          38.000
 118844792.538 7  92606362.835 7  22615407.242    22615413.086
  22615412.688          44.900          45.200
 21  2  1  0 50  0.0000000  0 12G01G03G06G13G14G17G19G21G22G24G28G30
 113626062.762 7  88539868.172 7  21622315.180    21622319.941
  21622320.234          43.900          44.500
 124244800.675 6  96814154.541 7  23642995.680    23643002.379
  23643002.789          41.700          43.400
 121927686.140 6  95008623.442 7  23202065.164    23202071.590
  23202071.867          40.700          44.400
 132286340.537 5 103080360.05342  25173272.398
  25173275.594          33.000          16.900
 106747983.962 7  83180275.615 9  20313457.984    20313460.867
  20313460.977          47.900          54.100
 109454815.995 8  85289496.921 8  20828552.586    20828554.762
  20828555.152          48.500          49.500
 113385964.488 8  88352799.72046  21576643.570
  21576645.898          48.400          39.200
 128988348.357 6 100510438.65643  24545655.328
  24545658.141          41.400          22.800
 124795455.987 7  97243223.94544  23747782.711
  23747782.258          43.400          29.500
 128492036.252 5 100123752.863 6  24451235.250    24451240.215
  24451240.277          35.800          39.700
 108058933.457 7  84201794.98146  20562922.844
  20562924.441          45.800          38.100
 118894003.892 7  92644709.336 7  22624771.719    22624776.723
  22624776.352          45.600          44.100
 21  2  1  0 50 15.0000000  0 12G01G03G06G13G14G17G19G21G22G24G28G30
 113665426.998 7  88570541.601 7  21629806.063    21629811.074
  21629810.762          44.100          44.100
 124212021.589 7  96788612.430 7  23636758.070    23636764.434
  23636765.109          42.000          44.900
 121874448.273 6  94967139.456 7  23191934.039    23191941.199
  23191940.926          39.800          43.600
 132323871.199 5 103109604.72342  25180413.883
  25180417.598          33.400          13.900
 106755355.158 8  83186019.392 9  20314861.094    20314863.605
  20314863.891          48.200          54.100
 109447632.964 8  85283899.759 8  20827185.219    20827188.031
  20827188.148          48.000          49.800
 113355668.369 7  88329192.35546  21570878.797
  21570880.566          47.400          38.700
 129036114.850 7 100547659.28043  24554745.414
  24554746.910          42.800          22.600
 124787821.459 7  97237274.96145  23746329.891
  23746329.621          43.500          30.200
 128453796.247 5 100093955.489 6  24443957.914    24443962.375
  24443962.695          34.600          37.600
 108055743.610 7  84199309.39346  20562315.516
  20562317.586          46.000          38.800
 118943277.785 7  92683104.574 7  22634148.266    22634153.680
  22634153.348          45.700          44.100
 21  2  1  0 50 30.0000000  0 12G01G03G06G13G14G17G19G21G22G24G28G30
 113704900.712 7  88601300.347 7  21637317.281    21637322.277
  21637322.527          45.100          44.300
 124179326.675 6  96763135.880 7  23630536.688    23630543.250
  23630543.332          40.800          43.300
 121821264.682 6  94925697.701 7  23181814.313    23181820.641
  23181820.020          40.700          43.700
 132361432.639 5 103138873.41242  25187560.961
  25187565.313          35.900          15.600
 106762827.218 7  83191841.776 9  20316282.563    20316285.285
  20316285.434          47.300          54.500
 109440511.846 8  85278350.829 8  20825830.297    20825832.898
  20825833.320          48.400          49.900
 113325440.039 8  88305637.83046  21565126.977
  21565127.895          48.900          39.700
 129083907.111 7 100584899.98543  24563839.484
  24563840.652          42.900          21.100
 124780309.980 7  97231421.88344  23744900.070
  23744900.754          42.200          29.900
 128415653.698 5 100064234.008 5  24436699.938    24436704.691
  24436703.996          35.200          35.300
 108052628.409 7  84196881.96046  20561722.492
  20561724.781          46.200          38.900
 118992614.338 7  92721548.658 7  22643536.727    22643541.988
  22643541.582          45.800          44.000
 21  2  1  0 50 45.0000000  0 12G01G03G06G13G14G17G19G21G22G24G28G30
 113744483.372 7  88632143.952 7  21644849.969    21644854.711
  21644854.773          44.700          46.000
 124146715.933 6  96737724.974 7  23624330.188    23624337.625
  23624336.832          41.900          42.500
 121768135.366 6  94884298.216 7  23171703.461    23171710.316
  23171709.781          41.600          44.100
 132399024.570 5 103168165.81742  25194715.820
  25194718.422          35.800          14.800
 106770399.988 7  83197742.662 8  20317723.273    20317726.605
  20317726.402          47.700          53.500
 109433452.566 8  85272850.089 8  20824487.258    20824489.688
  20824490.051          49.500          50.200
 113295279.254 8  88282135.94446  21559387.125
  21559389.051          48.800          39.400
 129131724.598 6 100622160.36143  24572939.125
  24572939.785          40.800          22.200
 124772921.897 6  97225664.94944  23743493.414
  23743494.703          41.900          29.100
 128377608.808 6 100034588.609 6  24429460.719    24429464.508
  24429463.422          36.200          37.400
 108049587.825 7  84194512.67246  20561144.344
  20561146.090          45.000          39.200
 119042012.944 7  92760041.035 7  22652937.078    22652942.367
  22652942.242          45.100          43.100
 21  2  1  0 51  0.0000000  0 12G01G03G06G13G14G17G19G21G22G24G28G30
 113784174.304 7  88663071.983 7  21652403.117    21652407.832
  21652408.008          45.700          45.800
 124114189.732 6  96712379.893 7  23618141.227    23618148.602
  23618148.078          41.200          43.000
 121715060.351 6  94842941.061 7  23161604.805    23161610.313
  23161609.910          41.300          43.900
 132436646.112 5 103197481.32842  25201874.172
  25201877.504          35.900          16.300
 106778073.371 8  83203721.895 8  20319183.664    20319186.531
  20319186.313          48.900          53.000
 109426454.622 8  85267397.165 8  20823155.219    20823157.762
  20823158.004          48.900          50.300
 113265185.958 8  88258686.59746  21553661.383
  21553661.930          48.400          39.200
 129179566.880 6 100659440.07143  24582043.063
  24582044.023          41.600          21.700
 124765657.048 7  97220004.00644  23742111.852
  23742112.488          42.200          29.400
 128339661.475 5 100005019.256 6  24422239.195    24422244.570
  24422243.043          34.600          38.100
 108046621.741 7  84192201.43746  20560580.039
  20560581.598          46.100          38.700
 119091473.026 7  92798581.384 7  22662349.359    22662354.602
  22662354.172          46.200          44.100
 21  2  1  0 51 15.0000000  0 12G01G03G06G13G14G17G19G21G22G24G28G30
 113823973.632 7  88694084.451 7  21659976.906    21659981.516
  21659981.711          46.000          46.100
 124081748.676 6  96687101.168 7  23611968.086    23611975.137
  23611975.367          41.700          45.100
 121662040.406 7  94801626.792 7  23151515.016    23151520.621
  23151520.094          42.300          43.100
 132474297.393 5 103226819.96942  25209039.148
  25209042.254          35.500          15.600
 106785847.825 7  83209779.893 8  20320663.344    20320666.633
  20320666.590          47.800          53.100
 109419518.484 8  85261992.385 8  20821835.414    20821838.180
  20821838.324          49.300          49.300
 113235160.550 8  88235290.19346  21547947.352
  21547948.242          49.100          39.500
 129227434.107 6 100696739.20643  24591151.875
  24591153.438          40.600          22.600
 124758515.762 7  97214439.40144  23740752.313
  23740753.195          43.900          29.800
 128301812.248 6  99975526.362 6  24415036.773    24415041.855
  24415040.656          36.800          36.000
 108043730.703 7  84189948.68846  20560029.414
  20560031.258          46.000          38.400
 119140994.616 7  92837169.646 7  22671772.094    22671777.707
  22671777.727          45.300          44.400
 21  2  1  0 51 30.0000000  0 12G01G03G06G13G14G17G19G21G22G24G28G30
 113863880.646 7  88725180.829 7  21667570.406    21667576.336
  21667576.449          45.700          46.900
 124049392.932 6  96661888.858 7  23605811.477    23605817.242
  23605817.906          40.500          44.300
 121609075.502 7  94760355.459 7  23141435.883    23141442.082
  23141441.266          42.400          42.700
 132511977.614 6 103256181.22442  25216210.063
  25216212.875          36.000          13.900
 106793723.100 7  83215916.477 8  20322161.625    20322164.828
  20322165.055          47.700          53.600
 109412643.701 8  85256635.413 8  20820526.984    20820529.727
  20820529.508          49.000          49.400
 113205202.866 8  88211946.55246  21542246.781
  21542248.227          48.900          39.400
 129275325.636 7 100734057.24644  24600265.453
  24600267.461          42.700          24.000
 124751498.051 7  97208971.06445  23739416.938
  23739417.539          43.500          30.100
 128264061.372 6  99946110.058 6  24407853.305    24407857.836
  24407857.398          37.400          38.600
 108040914.572 7  84187754.30346  20559493.680
  20559495.504          45.100          39.000
 119190577.079 7  92875805.328 7  22681207.898    22681213.105
  22681212.906          45.000          45.800
 21  2  1  0 51 45.0000000  0 12G01G03G06G13G14G17G19G21G22G24G28G30
 113903895.159 7  88756360.969 7  21675184.945    21675190.566
  21675191.137          45.700          47.300
 124017122.945 6  96636743.446 7  23599670.125    23599675.988
  23599676.184          41.500          42.300
 121556165.999 6  94719127.308 7  23131367.727    23131374.121
  23131373.781          40.800          44.700
 132549686.761 5 103285565.00342  25223385.906
  25223388.305          33.700          13.900
 106801699.428 8  83222131.794 8  20323679.930    20323682.887
  20323682.996          48.300          53.000
 109405830.252 8  85251326.223 8  20819230.758    20819233.336
  20819233.059          48.900          49.500
 113175313.006 7  88188655.75146  21536558.719
  21536559.820          47.500          38.700
 129323241.536 7 100771394.32843  24609384.273
  24609385.230          42.600          22.500
 124744604.159 7  97203599.20144  23738105.773
  23738105.516          42.900          29.600
 128226409.358 6  99916770.808 6  24400688.180    24400693.969
  24400693.250          37.100          40.600
 108038173.590 7  84185618.47346  20558972.570
  20558974.223          46.700          39.000
 119240220.188 7  92914488.252 7  22690654.375    22690660.094
  22690659.855          44.700          44.900
 21  2  1  0 52  0.0000000  0 12G01G03G06G13G14G17G19G21G22G24G28G30
 113944016.616 7  88787624.444 8  21682819.602    21682825.688
  21682826.574          45.900          48.100
 123984938.925 6  96611664.997 7  23593546.344    23593551.980
  23593551.344          40.400          42.600
 121503312.087 6  94677942.397 7  23121309.977    23121315.406
  23121315.715          41.600          44.100
 132587424.453 5 103314970.93442  25230567.430
  25230569.301          34.500          14.800
 106809776.728 7  83228425.786 8  20325216.484    20325219.652
  20325219.789          47.100          53.000
 109399078.036 8  85246064.767 8  20817945.641    20817947.684
  20817947.734          48.200          49.100
 113145490.742 7  88165417.62546  21530883.625
  21530883.789          47.300          38.000
 129371181.255 7 100808749.96943  24618506.672
  24618507.820          43.300          22.800
 124737834.036 7  97198323.75344  23736817.273
  23736817.254          44.000          29.700
 128188856.043 6  99887508.534 7  24393542.375    24393548.133
  24393548.492          37.600          42.600
 108035507.703 7  84183541.15246  20558464.859
  20558466.523          46.500          39.300
 119289923.379 7  92953218.028 7  22700112.813    22700118.824
  22700118.430          43.500          44.500
 21  2  1  0 52 15.0000000  0 12G01G03G06G13G14G17G19G21G22G24G28G30
 113984244.874 7  88818971.111 7  21690475.523    21690480.660
  21690481.078          45.700          47.300
 123952841.519 6  96586654.014 6  23587438.141    23587443.957
  23587443.242          41.100          41.900
 121450514.173 6  94636801.199 7  23111262.586    23111268.711
  23111269.008          40.900          43.700
 132625189.985 5 103344398.60742  25237754.141
  25237757.043          34.900          14.800
 106817955.274 8  83234798.688 8  20326773.094    20326776.195
  20326776.492          48.700          53.900
 109392387.084 7  85240851.048 8  20816672.406    20816674.828
  20816674.863          47.300          49.100
 113115736.373 7  88142232.39746  21525221.266
  21525221.691          47.300          38.500
 129419144.724 7 100846124.11543  24627633.953
  24627634.578          42.500          22.800
 124731187.982 7  97193145.04444  23735552.000
  23735552.332          43.900          28.600
 128151402.142 6  99858323.699 7  24386415.320    24386420.707
  24386421.867          39.600          43.200
 108032917.196 7  84181522.57246  20557972.195
  20557973.953          46.700          38.600
 119339686.594 7  92991994.527 7  22709581.945    22709587.969
  22709587.066          44.100          43.400
 21  2  1  0 52 30.0000000  0 12G01G03G06G13G14G17G19G21G22G24G28G30
 114024579.483 7  88850400.669 7  21698150.906    21698155.988
  21698156.273          44.700          47.400
 123920830.921 6  96561710.732 6  23581346.742    23581353.090
  23581352.367          41.500          41.200
 121397772.560 6  94595703.855 7  23101226.828    23101232.441
  23101232.520          41.600          43.800
 132662983.114 5 103373847.81442  25244944.297
  25244948.855          34.600          14.800
 106826235.097 8  83241250.481 8  20328349.180    20328351.824
  20328352.117          48.500          53.700
 109385757.259 8  85235684.958 8  20815410.727    20815413.188
  20815413.637          48.300          48.800
 113086049.896 7  88119100.06846  21519572.414
  21519572.941          47.600          38.100
 129467131.684 7 100883516.53943  24636765.883
  24636765.516          42.800          22.800
 124724666.212 7  97188063.16144  23734311.398
  23734311.473          42.100          26.500
 128114047.562 6  99829216.228 7  24379307.219    24379312.359
  24379312.926          40.900          42.300
 108030402.326 7  84179562.93046  20557493.086
  20557494.996          46.000          39.200
 119389509.338 7  93030817.392 7  22719063.516    22719069.137
  22719068.637          45.200          45.000
 21  2  1  0 52 45.0000000  0 12G01G03G06G13G14G17G19G21G22G24G28G30
 114065020.112 7  88881912.863 7  21705845.430    21705851.988
  21705851.836          45.200          46.000
 123888907.610 6  96536835.400 7  23575271.641    23575277.309
  23575277.551          41.700          42.100
 121345087.547 7  94554650.592 7  23091199.734    23091207.004
  23091206.895          42.300          44.900
 132700803.555 6 103403318.27742  25252142.672
  25252145.496          36.100          13.900
 106834616.258 7  83247781.270 8  20329943.516    20329946.805
  20329946.891          46.700          52.800
 109379188.562 8  85230566.489 8  20814161.141    20814163.461
  20814163.746          48.900          49.800
 113056431.180 7  88096020.57746  21513936.023
  21513936.898          46.900          37.500
 129515141.850 7 100920927.08543  24645900.898
  24645901.848          42.000          22.900
 124718268.764 6  97183078.12444  23733094.133
  23733093.910          41.700          27.900
 128076792.635 6  99800186.418 6  24372218.211    24372222.828
  24372222.684          41.400          41.700
 108027963.159 7  84177662.28146  20557030.086
  20557031.168          47.000          39.600
 119439391.235 7  93069686.417 7  22728555.141    22728561.156
  22728560.699          44.400          44.400
 21  2  1  0 53  0.0000000  0 12G01G03G06G13G14G17G19G21G22G24G28G30
 114105566.443 7  88913507.407 7  21713561.117    21713567.426
  21713567.668          43.800          46.800
 123857071.917 6  96512028.371 6  23569213.508    23569218.879
  23569219.066          41.700          41.200
 121292459.410 6  94513641.692 7  23081184.453    23081191.625
  23081191.656          40.800          43.500
 132738650.899 6 103432809.66442  25259343.891
  25259348.004          36.300          15.600
 106843098.812 7  83254391.062 8  20331557.430    20331560.637
  20331560.820          47.800          53.500
 109372680.798 8  85225495.498 8  20812922.164    20812925.230
  20812925.465          48.600          50.300
 113026880.472 7  88072994.02146  21508313.109
  21508314.211          47.500          38.700
 129563174.939 7 100958355.46644  24655041.773
  24655042.746          42.000          24.000
 124711995.734 6  97178190.04944  23731900.430
  23731899.879          41.700          26.700
 128039637.908 6  99771234.678 7  24365148.094    24365152.766
  24365152.531          40.700          42.200
 108025599.826 7  84175820.72446  20556580.016
  20556581.797          46.800          39.200
 119489331.955 7  93108601.251 7  22738059.039    22738065.109
  22738064.762          44.700          45.000
